{"projects":[{"id":27786,"permalink":"compagnons-de-cordee","name":"Compagnons de Cordée / Le Film","latitude":44.9136,"longitude":6.6722,"type_group":"reward","headline":"Post-production d'un film documentaire sur les élans d’humanité à la frontière franco-italienne.","state":"successful","goal":"5000.0","funded":5170.0},{"id":19901,"permalink":"le-super-cafoutch","name":"LE SUPER CAFOUTCH","latitude":43.3002,"longitude":5.38152,"type_group":"reward","headline":"Participez à l'ouverture du premier supermarché coopératif et participatif à Marseille.","state":"successful","goal":"10000.0","funded":14324.0},{"id":20017,"permalink":"les-oiseaux-de-passage","name":"LES OISEAUX DE PASSAGE","latitude":45.1811,"longitude":4.92942,"type_group":"reward","headline":"Un gîte social et solidaire, accessible à tous, en Drôme des Collines.\n\n","state":"successful","goal":"15000.0","funded":4920.0},{"id":27387,"permalink":"ouverture-BIOCOOP-de-Lauragais","name":"Ouverture du BIOCOOP de Lauragais","latitude":43.4018334,"longitude":1.7122457,"type_group":"reward","headline":"Nous réalisons cette collecte pour nous aider à participer aux achats de fournitures du magasin qui permettront d'améliorer notre offre de produits et services.","state":"successful","goal":"8000.0","funded":2796.0},{"id":30355,"permalink":"base-toulouse","name":"La BASE Toulouse","latitude":43.6088111,"longitude":1.4435093,"type_group":"reward","headline":"À Toulouse, Alternatiba/ANV-COP21, Greenpeace, Extinction Rebellion, les Faucheurs Volontaires, Youth For Climate et les Amis de la Terre s'organisent pour créer dans les prochains mois... La BASE, un lieu de rassemblement d’initiatives citoyennes pour agir ensemble face à l'urgence climatique et sociale !","state":"successful","goal":"26000.0","funded":27163.0},{"id":29375,"permalink":"du-pain-pour-demain","name":"Du Pain pour Demain ? Un fournil associatif pour notre village","latitude":44.229161,"longitude":3.5774166,"type_group":"reward","headline":"5 amis - dont trois boulangères - souhaitent proposer un pain biologique à base de levain et de farines locales à l’ancienne. Nous avons besoin de vous pour construire le fournil !","state":"successful","goal":"15000.0","funded":15230.0},{"id":19839,"permalink":"du-vrac-et-encore-plus-de-vrac","name":"DU VRAC ET ENCORE PLUS DE VRAC !","latitude":50.634,"longitude":3.06671,"type_group":"reward","headline":"Faire ses courses zéro-déchet, c'est facile au magasin Biocoop Molinel !","state":"successful","goal":"3000.0","funded":1710.0},{"id":27123,"permalink":"album-odettes-tips","name":"Odette’s Tips : Participez à la finalisation de l’album ! / Aiutaci a terminare l'album!","latitude":43.0481447,"longitude":1.7377244,"type_group":"reward","headline":"Participez au financement du mastering et à la fabrication des disques / Partecipa al finanziamento del mastering e alla produzione dei dischi.","state":"successful","goal":"4500.0","funded":1706.1},{"id":19532,"permalink":"requiem-postnucleaire-postnuklea-rekviemo","name":"RÉQUIEM POSTNUCLÉAIRE / POSTNUKLEA REKVIEMO","latitude":48.0041,"longitude":7.03084,"type_group":"reward","headline":"Jim Petit, une création musicale photovoltaïque.","state":"successful","goal":"4000.0","funded":4165.0},{"id":27988,"permalink":"chymos-nomade-epicerie-ambulante","name":"Chymós Nomade","latitude":43.1762193,"longitude":5.6088282,"type_group":"reward","headline":"Nos produits bio, vrac et zéro déchet viennent jusqu'à vous grâce à notre épicerie ambulante !","state":"successful","goal":"6000.0","funded":2000.0},{"id":23281,"permalink":"faire-grandir-le-florain","name":"DEUXIÈME IMPRESSION DE FLORAINS !","latitude":48.6983384,"longitude":6.1669694,"type_group":"reward","headline":"Nous atteignons près de 100 000 Florains en circulation ... pour continuer à grandir, il nous faut réimprimer !","state":"successful","goal":"4000.0","funded":4110.0},{"id":26739,"permalink":"ledrivetoutnulille","name":"Le Drive tout nu à Lille","latitude":50.6519994,"longitude":3.1224781,"type_group":"reward","headline":"Toutes vos courses locales et zéro déchet prêtes en 1h. La Team déculottée pose ses valises à la Pilaterie près de Lille.","state":"successful","goal":"8000.0","funded":9370.0},{"id":24671,"permalink":"e3p","name":"Ecole de permaculture du Petit Pessicart","latitude":43.7185319,"longitude":7.2425338,"type_group":"reward","headline":"Avec votre aide, réalisons un tiers-lieu exemplaire de la Transition, une école de permaculture qui démontre, inspire et forme à la régénération du monde.","state":"successful","goal":"12769.0","funded":8334.0},{"id":25608,"permalink":"handiescales-voyage-pour-tous","name":"Voyage pour tous en minibus adapté","latitude":43.769592,"longitude":5.294696,"type_group":"reward","headline":"achat d'un véhicule adapté pour les séjours et sorties pour les personnes à mobilité réduite.","state":"successful","goal":"5000.0","funded":5615.0},{"id":20655,"permalink":"le-jardin-de-guillemette","name":"LE JARDIN DE GUILLEMETTE","latitude":47.179301,"longitude":-1.6233691,"type_group":"reward","headline":"Création d'une exploitation maraîchère biologique à Saint-Jean-de-Boiseau (Loire-Atlantique).","state":"successful","goal":"3300.0","funded":3040.0},{"id":30871,"permalink":"fest-irlande","name":"Fest'Irlande","latitude":45.1340423,"longitude":2.2262294,"type_group":"reward","headline":"Festival de musique chant et danse, traditionnel irlandais, annuel, associatif à Pleaux dans le Cantal.","state":"successful","goal":"2000.0","funded":592.0},{"id":19607,"permalink":"lescalograin-pres","name":"L'ESCAL'O'GRAIN PRES","latitude":48.9479,"longitude":8.07023,"type_group":"reward","headline":"Une épicerie itinérante dans le nord de l’Alsace : bio \u0026 locale !","state":"successful","goal":"1500.0","funded":1555.0},{"id":22871,"permalink":"ferme-colline","name":"Des Oeufs pour la Colline !","latitude":48.8418695,"longitude":7.5810972,"type_group":"reward","headline":"Développons ensemble un atelier de poules pondeuses Biologiques et Demeter. C'est l'occasion pour vous de participer au développement d'une petite ferme pour une alimentation locale et de qualité.","state":"successful","goal":"6565.0","funded":5230.0},{"id":20129,"permalink":"lecho-cafe","name":"L'ECHO CAFE","latitude":44.5382,"longitude":4.74643,"type_group":"reward","headline":"RESTAURANT - BOUTIQUE ECO-RESPONSABLE A MONTELIMAR","state":"successful","goal":"4500.0","funded":8155.0},{"id":30659,"permalink":"festival-zero","name":"Festival Zéro","latitude":45.270118,"longitude":6.33357,"type_group":"reward","headline":"Festival des luttes écologiques, sociales et solidaires en Maurienne. Conférences gesticulées, ateliers, forums, musique, spectacles...","state":"successful","goal":"1000.0","funded":1110.0},{"id":31879,"permalink":"prairie-fleurie-pour-les-jeunes-sourds","name":"Une prairie fleurie pour les jeunes sourds","latitude":44.7853599,"longitude":-0.6105646,"type_group":"donation","headline":"Nous voulons engager nos jeunes dans ce projet pédagogique de création d’une prairie fleurie : aidez-nous.","state":"successful","goal":"1728.0","funded":847.0},{"id":21609,"permalink":"brin-de-nature-a-l-atelier-des-possibles","name":"UN BRIN DE NATURE A L'ATELIER DES POSSIBLES","latitude":45.353644,"longitude":5.6072514,"type_group":"donation","headline":"La première école démocratique en Isère transforme son extérieur goudronné en amenant de la flore et de la faune !","state":"successful","goal":"16000.0","funded":8592.0},{"id":31084,"permalink":"atelier-aponi","name":"Atelier APONI","latitude":47.21306,"longitude":-1.55086,"type_group":"reward","headline":"Objets de décoration inspirés, artisanat éthique et poétique.","state":"successful","goal":"5700.0","funded":3435.0},{"id":20138,"permalink":"il-pleuvait-sur-brest","name":"IL PLEUVAIT SUR BREST...","latitude":48.389,"longitude":-4.50061,"type_group":"reward","headline":"Au secours Vivre la Rue prend l'eau !BEAUX DIMANCHES pluvieux, BEAUX DIMANCHES heureux mais BEAUX DIMANCHES ruineux !","state":"successful","goal":"1500.0","funded":1500.0},{"id":24196,"permalink":"le-pain-de-Karine","name":"Le pain de Karine","latitude":43.6383631,"longitude":1.1659492,"type_group":"reward","headline":"Le Pain de Karine c'est le nom de la boulangerie qui ouvrira ses portes avant l'été dans le village de Lasserre-Pradère. Pain au levain fabriqué à partir de farine BIO, brioche, sablé.. vous y seront proposés. Vous y retrouverez aussi de nombreuses surprises gustatives au gré des saisons! A très vite!","state":"successful","goal":"6000.0","funded":7980.0},{"id":19648,"permalink":"la-ferme-des-quatre-sabots","name":"LA FERME DES QUATRE SABOTS","latitude":43.1378,"longitude":1.31266,"type_group":"reward","headline":"Maraîchage en traction animale","state":"successful","goal":"1500.0","funded":5460.0},{"id":30244,"permalink":"l-attrape-reve","name":"L'attrape Rêve - Cabinet d'Art-thérapie","latitude":46.7347907,"longitude":5.6052294,"type_group":"reward","headline":"Je souhaite ouvrir mon cabinet d'art-thérapie à Tours, en début 2023. Participez au lancement de mon activité en m'aidant à acheter du matériel  et à louer un espace.","state":"successful","goal":"3500.0","funded":1855.0},{"id":19804,"permalink":"ecoloc","name":"ECOLOC","latitude":46.2028,"longitude":6.2504,"type_group":"reward","headline":"Un lieu ressource dans la vallée de la Méouge (Hautes-Alpes)\n\n","state":"successful","goal":"30000.0","funded":10050.0},{"id":31741,"permalink":"savonneriebernier","name":"Lancement de la production de liniment pour bébé et baume nourrissant naturel","latitude":49.1647515,"longitude":-1.4109221,"type_group":"reward","headline":"Financer le lancement de deux projets : le liniment pour prendre soin des fesses de bébé, et un baume nourrissant naturel, avec des matières premières bio et françaises, sans conservateur.","state":"successful","goal":"3300.0","funded":1580.0},{"id":25865,"permalink":"communile-rachete-une-ferme","name":"Le Bar'ile et Le SALUT deviennent une coopérative, et ils achètent leur ferme!","latitude":47.2048019,"longitude":-1.5484812,"type_group":"reward","headline":"La nouvelle SCIC Commun'île, fruit du passage en Coopérative des Bars-restaurants Nantais le Bar'ile et le SALUT rachètent une exploitation maraîchère pour boucler la boucle de la terre à l'assiette ! Aidez nous à financer ce projet coopératif de réappropriation de l'outil de production agricole.","state":"successful","goal":"30000.0","funded":30050.0},{"id":21816,"permalink":"la-traverse","name":"LA TRAVERSE, POUR LA TRANSITION ÉCOLOGIQUE ET SOCIALE DANS LES TERRITOIRES RURAUX","latitude":46.5832383,"longitude":0.3620801,"type_group":"reward","headline":"Un tour de France pour comprendre, animer et partager les dynamiques à l’oeuvre en matière de transition dans les territoires ruraux.","state":"successful","goal":"6000.0","funded":6321.0},{"id":22634,"permalink":"cap-au-nord-2020","name":"CAP AU NORD 2020","latitude":49.0710626,"longitude":2.1035778,"type_group":"reward","headline":"L'ECOLE face au plus grand défi du XXIème siècle - Cap au Nord 2020","state":"successful","goal":"10000.0","funded":5023.0},{"id":19541,"permalink":"papillon-et-coquelicot","name":"PAPILLON ET COQUELICOT","latitude":45.7441,"longitude":3.65694,"type_group":"reward","headline":"Épicerie itinérante en pays de Courpière (Puy-de-Dôme)","state":"successful","goal":"4000.0","funded":4035.0},{"id":27539,"permalink":"zecobatisseurs-deja-10ans","name":"Vivre Ensemble aux Z'écobatisseurs! ","latitude":49.1594136,"longitude":-0.4007306,"type_group":"reward","headline":"Un film documentaire sur le vivre ensemble dans le projet d'Habitat Participatif Les Zécobatisseurs à Louvigny, 10 ans après le début de cette aventure collective","state":"successful","goal":"3500.0","funded":2850.0},{"id":20080,"permalink":"ecomateriaux-04","name":"ÉCOMATÉRIAUX 04","latitude":44.0935,"longitude":6.23635,"type_group":"reward","headline":"Faciliter la distribution et l'utilisation des matériaux écologiques dans les Alpes de Haute Provence","state":"successful","goal":"5000.0","funded":1625.0},{"id":19762,"permalink":"garage-solidaire-de-lartois","name":"GARAGE SOLIDAIRE DE L'ARTOIS","latitude":50.5018884,"longitude":2.6219109,"type_group":"reward","headline":"L'emploi c'est tout droit ! Contribuez à l'installation d'un garage solidaire sur Béthune.","state":"successful","goal":"2500.0","funded":1245.0},{"id":19563,"permalink":"ecotransat","name":"ECOTRANSAT","latitude":43.5392,"longitude":4.13936,"type_group":"reward","headline":"Le voilier écologique de demain","state":"successful","goal":"10000.0","funded":31210.0},{"id":19915,"permalink":"ecole-democratique-yvonne-guegan","name":"ECOLE DÉMOCRATIQUE YVONNE GUÉGAN","latitude":49.1846,"longitude":-0.373772,"type_group":"reward","headline":"Une approche Scientifique, Artistique et Citoyenne de la Nature et de la Connaissance à Caen.\n\n","state":"successful","goal":"2300.0","funded":1361.0},{"id":24946,"permalink":"epicerie-colibris","name":"Un coup de pouce pour l'épicerie des colibris, épicerie de village bio, joyeuse et créative ","latitude":45.9399084,"longitude":4.6165853,"type_group":"reward","headline":"Pour inscrire son activité dans le long terme, l'épicerie des colibris doit déménager. Elle a besoin de vous pour financer les travaux !","state":"successful","goal":"30000.0","funded":11180.0},{"id":19873,"permalink":"lanceurs-davenir-2","name":"LANCEURS D'AVENIR #2","latitude":48.8564,"longitude":2.36809,"type_group":"reward","headline":"Hors La Loi \"Pour dépasser la loi\" Vol 2 / La boite à outils\n\n","state":"successful","goal":"2000.0","funded":1791.0},{"id":19856,"permalink":"un-cheval-pour-cloe","name":"UN CHEVAL POUR CLOE","latitude":47.6969985,"longitude":7.3169347,"type_group":"reward","headline":"Cloé, son cheval de bataille contre Parkinson vers les Jeux Paralympiques de Tokyo.","state":"successful","goal":"4900.0","funded":1375.0},{"id":20077,"permalink":"livermore-1","name":"LIVERMORE","latitude":49.6406423,"longitude":-1.6243029,"type_group":"reward","headline":"Boutique/atelier durable à Cherbourg.","state":"successful","goal":"2000.0","funded":4545.0},{"id":19524,"permalink":"bio-sfaire-en-bouriane","name":"BIO S'FAIRE EN BOURIANE","latitude":44.7372,"longitude":1.38211,"type_group":"reward","headline":"Création d'un magasin Biocoop à Gourdon, dans le Lot.","state":"successful","goal":"5000.0","funded":7529.0},{"id":23794,"permalink":"cit-en","name":"Projet citoyen d'énergie solaire sur le territoire de Nîmes Métropole.","latitude":43.8348857,"longitude":4.332015,"type_group":"donation","headline":"S'engager avec l'association CIT'EN dans son projet de grappe photovoltaïque sur toitures privées et publiques sur le territoire de Nîmes Métropole. L'électricité verte produite sera vendue sur le réseau d'électricité. Le projet est financé et géré par les citoyens. Contribuez vous aussi à la transition énergétique à votre échelle. C'est ensemble que le changement se fera.","state":"successful","goal":"3400.0","funded":1900.0},{"id":19564,"permalink":"festival-koudrizou-2016","name":"FESTIVAL KOUD'RIZOU 2016","latitude":44.3769,"longitude":5.51449,"type_group":"reward","headline":"Festival de spectacle vivant pluridisciplinaire en milieu rural","state":"successful","goal":"1000.0","funded":1905.0},{"id":29188,"permalink":"laquich-nette","name":"food truck quiche artisanale","latitude":45.8219722,"longitude":-0.4069338,"type_group":"reward","headline":"Besoin de constituer mon stock de départ, de la trésorerie ainsi que du matériel pour finir d'aménager la caravane : groupe électrogène, frigo et petit matériel.","state":"successful","goal":"3000.0","funded":795.0},{"id":28112,"permalink":"les-retournees","name":"Les Retournées ","latitude":43.48283065,"longitude":-1.5131718705167112,"type_group":"donation","headline":"Agissons ensemble pour le retour de la consigne !","state":"successful","goal":"11100.0","funded":11187.0},{"id":28898,"permalink":"lafermeducanalet","name":"Soutenir une ferme c'est soutenir l'agriculture locale, notre ressource alimentaire","latitude":43.6410008,"longitude":3.1638332,"type_group":"reward","headline":"Des Paysans connaissent la crise ! SOUTENONS LES !","state":"successful","goal":"7000.0","funded":7010.0},{"id":28659,"permalink":"InnSaei-Cuisine-Nomade-Et-Essentielle","name":"InnSaei : Cuisine Nomade et Essentielle","latitude":43.2398404,"longitude":0.7135818,"type_group":"reward","headline":"InnSaei Cuisine nomade et Essentielle – projet de réfection et d'aménagement d'une caravane pour vente à empoter et ateliers de cuisine du quotidien, avec une nourriture saine, locale, de saison et biologique.  ","state":"successful","goal":"3000.0","funded":2710.0},{"id":19896,"permalink":"des-serres-pour-des-plants-bio","name":"DES SERRES POUR DES PLANTS BIO","latitude":50.4785668,"longitude":2.7411202,"type_group":"reward","headline":"Construction de serres de production de plants Bio","state":"successful","goal":"1500.0","funded":1470.0},{"id":19646,"permalink":"ecologie-au-quotidien-de-die","name":"ECOLOGIE AU QUOTIDIEN DE DIE","latitude":44.7761,"longitude":5.3514,"type_group":"reward","headline":"Soyons le changement que nous voulons voir dans le monde - Gandhi\n\n","state":"successful","goal":"10000.0","funded":1100.0},{"id":19782,"permalink":"soutenez-les-amis-de-lecole","name":"SOUTENEZ LES AMIS DE L'ECOLE !","latitude":44.1785,"longitude":3.74248,"type_group":"reward","headline":"Les parents d'élèves de l'école de Saint-Martin de Lansuscle s'engagent.\n\n","state":"successful","goal":"3000.0","funded":1590.0},{"id":23931,"permalink":"baita","name":"Baïta ","latitude":43.2948035,"longitude":5.3940612,"type_group":"reward","headline":"Redémarrer plus local, plus durable et plus résilient. Aidez nous à construire des communautés engagées sur vos territoires !","state":"successful","goal":"10000.0","funded":8030.0},{"id":31036,"permalink":"souffledor","name":"Pérennisez une maison d’édition indépendante et écoresponsable !","latitude":44.5662387,"longitude":6.0977221,"type_group":"reward","headline":"Pour que nos livres d’automne ne soient pas les derniers, soutenez les éditions Le Souffle d’Or et Yves Michel et continuez de rêver avec nous !","state":"successful","goal":"25000.0","funded":19190.0},{"id":31724,"permalink":"lherberie-perpignan","name":"L' Herberie: un coin de nature au coeur de Perpignan","latitude":42.6956229,"longitude":2.8900791,"type_group":"reward","headline":"Participer au fleurissement de notre herboristerie : poursuivre son embellissement, élargir nos produits en vente et développer notre site internet.","state":"successful","goal":"8000.0","funded":4200.0},{"id":31900,"permalink":"la-chariotte","name":"La Chariotte","latitude":45.7674516,"longitude":4.8597123,"type_group":"reward","headline":"Pour faciliter les circuits courts, contribuez à la création d'un site internet libre d'organisation de commandes groupées","state":"successful","goal":"3500.0","funded":3273.27},{"id":29113,"permalink":"les_savons_du_bout_dla_presquile","name":"Les savons du bout d'la presqu'île","latitude":49.6918404,"longitude":-1.3137021,"type_group":"reward","headline":"Artisan du Cotentin pour un avenir plus sain.","state":"successful","goal":"2500.0","funded":3350.0},{"id":29407,"permalink":"Carnets-de-route-en-Colombie","name":"COLOMBIE, L'aventure qui m'a reconnecté à mon intuition","latitude":44.9206552,"longitude":4.7033032,"type_group":"reward","headline":"Le Carnet de Voyage qui partage l'enseignement perçu lors de cette aventure bouleversante.","state":"successful","goal":"3000.0","funded":3000.0},{"id":28460,"permalink":"jean-les-crocs-soutien-tresorerie","name":"Jean les Crocs, restaurant stéphanois éco-responsable","latitude":45.4319323,"longitude":4.3948212,"type_group":"reward","headline":"Jeune restaurant stéphanois recherche un soutien en trésorerie pour faire perdurer son activité","state":"successful","goal":"4000.0","funded":2440.0},{"id":19948,"permalink":"la-ferme-de-la-racine","name":"LA FERME DE LA RACINE","latitude":48.3157963,"longitude":5.588798,"type_group":"reward","headline":"Le lien entre la Terre, les Animaux et les Hommes, en Haute-Marne","state":"successful","goal":"3500.0","funded":4380.0},{"id":19565,"permalink":"conservatoire-de-labeille-noire-en-ardeche","name":"CONSERVATOIRE DE L'ABEILLE NOIRE EN ARDÈCHE","latitude":44.8349,"longitude":4.49114,"type_group":"reward","headline":"Pour une apiculture de conservation à côté de l'apiculture de production","state":"successful","goal":"2000.0","funded":5758.5},{"id":27020,"permalink":"lechampdestours","name":"Ramenons l'agriculture en ville!","latitude":47.7632066,"longitude":-3.3778909,"type_group":"reward","headline":"Nous sommes deux maraîchères à nous installer en plein coeur de la ville de Lorient","state":"successful","goal":"6000.0","funded":5350.0},{"id":19525,"permalink":"de-lile-aux-papilles","name":"DE L'ILE AUX PAPILLES","latitude":45.9762,"longitude":-1.32335,"type_group":"reward","headline":"Un restaurant de cuisine locale avec objectif \"zéro déchets\" sur l'Ile d'Oléron.\n\n","state":"successful","goal":"3000.0","funded":2650.0},{"id":20002,"permalink":"le-foodtruck-bio-strasbourgeois-sequipe-en-panneaux-solaires","name":"LE FOODTRUCK BIO STRASBOURGEOIS S'EQUIPE EN PANNEAUX SOLAIRES !","latitude":48.5882,"longitude":7.71018,"type_group":"reward","headline":"Pour l'autonomisation électrique du food truck engagé, végétal et bio \"L'essentiel chez Raphaël\"\n\n","state":"successful","goal":"5000.0","funded":2665.0},{"id":19579,"permalink":"plein-le-boutoc","name":"PLEIN LE BOUTOC !","latitude":48.2242,"longitude":-3.5075,"type_group":"reward","headline":"Une ferme en gestation pour cultiver de bons légumes sur la colline","state":"successful","goal":"5350.0","funded":11805.0},{"id":26811,"permalink":"des-plateaux-aux-parcelles","name":"Un \"infiltré\" dans le Saumurois : des plateaux de cinéma aux parcelles...","latitude":47.21390059619298,"longitude":-0.2942062731215634,"type_group":"reward","headline":" « Assistant caméra depuis toujours, je deviens vigneron en agriculture biologique dans le Saumurois. J’ai besoin de vous pour m’aider à concrétiser ce rêve »","state":"successful","goal":"4000.0","funded":6845.0},{"id":24725,"permalink":"RARes2021","name":"RARe 2021 - Le partage d'une Culture durable ","latitude":45.7738431,"longitude":4.8358413,"type_group":"donation","headline":"Contribuez à financer la RARe 2021 ! Cette résidence explorera l'écoconception comme vecteur social. 15 étudiant.es aux côtés des habitant.es pour des créations durables et solidaires.","state":"successful","goal":"3500.0","funded":3735.0},{"id":28989,"permalink":"cachetteboutique","name":"Cachette, boutique engagée","latitude":46.5012935,"longitude":-1.8064523,"type_group":"reward","headline":"Créons ensemble une boutique qui respecte le vivant et soutient une consommation raisonnée. Découvrez des plaisirs responsables autour de différents univers : épicerie, créations up-cyclées et artistiques, surf et yoga. ","state":"successful","goal":"6500.0","funded":5115.0},{"id":27972,"permalink":"pains-de-cisse","name":"Les Pains de Cisse","latitude":47.4214414,"longitude":0.8921603,"type_group":"reward","headline":"Financement du four à bois pour une boulangerie Bio dans la commune de Noizay","state":"successful","goal":"4000.0","funded":2585.0},{"id":19599,"permalink":"enercit-82","name":"ENERCIT 82","latitude":44.019,"longitude":1.36493,"type_group":"reward","headline":"Un tremplin pour des énergies citoyennes en Tarn-et-Garonne.","state":"successful","goal":"1000.0","funded":1035.0},{"id":28417,"permalink":"coccinelle-et-ver-de-terre","name":"Coccinelle \u0026 Ver de Terre","latitude":46.0768042,"longitude":3.0013514,"type_group":"reward","headline":"Implantation en moyenne montagne d'un verger maraîcher en agriculture biologique, afin de produire en abondance des fruits et légumes sains et de qualité dans le respect d'un sol vivant.","state":"successful","goal":"10824.0","funded":9810.0},{"id":29535,"permalink":"pause-dej","name":"FOOD TRUCK ENGAGE ET SOLIDAIRE","latitude":44.9221345,"longitude":4.9197459,"type_group":"reward","headline":"Notre désir est de valoriser le terroir de la région Auvergne Rhône Alpes, au travers de produits locaux de qualité. Points clés : en circuit court, \"fait maison\", emballages écologiques. Notre vision : 1) impacter des vies 2) représenter la région 3) soutenir les associations locales et régionales (à vocation humanitaire)","state":"successful","goal":"10000.0","funded":2705.0},{"id":19807,"permalink":"lecole-du-svoir","name":"L'ECOLE DU S@VOIR","latitude":47.6129922,"longitude":1.3277897,"type_group":"reward","headline":"Ecole multilingue aux pédagogies alternatives dans le Loir-et-Cher.","state":"successful","goal":"4000.0","funded":2160.0},{"id":19706,"permalink":"dvtup","name":"DVTup","latitude":48.8761,"longitude":2.36074,"type_group":"reward","headline":"Créateur d'harmonie sociale Hommes / Espaces\n\n","state":"successful","goal":"3000.0","funded":6275.0},{"id":27198,"permalink":"LE-NOMAD","name":"Le Nomad'","latitude":43.8243101,"longitude":3.7782992,"type_group":"donation","headline":"La Saison Artistique de Melando porte, depuis plus de 10 ans, une saison artistique itinérante en Pic Saint Loup. En 2022, elle souhaite déployer un nouvel équipement accompagnant son itinérance… un lieu mobile qui sillonnera les routes et s'arrêtera dans les villages !!","state":"successful","goal":"12000.0","funded":8154.0},{"id":28709,"permalink":"la-ferme-ecofolies","name":"La ferme Ecofolies","latitude":47.096094,"longitude":-1.80622,"type_group":"donation","headline":"La ferme Ecofolies a besoin de vous pour créer : son jardin des 5 sens, sa cantine solidaire et conviviale et sa ferme pédagogique.","state":"successful","goal":"22000.0","funded":14672.0},{"id":19759,"permalink":"les-ateliers-de-leonardo","name":"LES ATELIERS DE LEONARDO","latitude":44.7846,"longitude":5.76851,"type_group":"reward","headline":"Projet pour un centre culturel en milieu rural dans le Trièves.","state":"successful","goal":"10000.0","funded":16410.0},{"id":20150,"permalink":"nature-et-progres-fait-peau-neuve","name":"NATURE \u0026 PROGRÈS FAIT PEAU NEUVE","latitude":44.1269063,"longitude":4.0794736,"type_group":"reward","headline":"Essaimons l’agroécologie paysanne, rendez visible notre projet de société !","state":"successful","goal":"15000.0","funded":16180.0},{"id":31412,"permalink":"chez-laurette-boulangerie-artisanale","name":"Chez Laurette - Boulangerie artisanale","latitude":47.8832989,"longitude":-1.4398295,"type_group":"reward","headline":"Participez à la création de ma boulangerie artisanale en four à bois à Coësmes (35)","state":"successful","goal":"5432.0","funded":5261.0},{"id":20190,"permalink":"restachou-mad","name":"RESTACHOU MAD","latitude":48.0880729,"longitude":-4.3215817,"type_group":"reward","headline":"Valoriser les invendus alimentaires à Douarnenez et en Ouest Cornouaille","state":"successful","goal":"5000.0","funded":5244.0},{"id":19903,"permalink":"ethic-or-not","name":"ETHIC OR NOT","latitude":45.7709,"longitude":4.88219,"type_group":"reward","headline":"Le serious game des consom'acteurs !","state":"successful","goal":"1000.0","funded":1012.0},{"id":19624,"permalink":"le-pain-des-piafs","name":"LE PAIN DES PIAFS","latitude":45.6839,"longitude":4.64109,"type_group":"reward","headline":"Un moulin pour la ferme.","state":"successful","goal":"3000.0","funded":5710.0},{"id":20015,"permalink":"skavenji","name":"SKAVENJI","latitude":43.6805,"longitude":7.20396,"type_group":"reward","headline":"La box pour produire votre énergie renouvelable low tech, comme au potager !\n\n","state":"successful","goal":"20000.0","funded":18175.0},{"id":23744,"permalink":"epiceyrieux","name":"SCIC EPICEYRIEUX, une épicerie pour des achats qui pèsent dans la balance! ","latitude":44.9060167,"longitude":4.4225217,"type_group":"reward","headline":"Une Société Coopérative d'Intérêt Collectif au Cheylard en Ardèche ! Faire de l'approvisionnement bio dans les Boutières un levier pour l'agriculture et l'économie locales tout en favorisant les liens et la solidarité. ","state":"successful","goal":"5000.0","funded":5520.0},{"id":30440,"permalink":"yolande_premier-recueil-poesie","name":"Prévente de mon premier recueil de poésie","latitude":45.3759731,"longitude":5.9561347,"type_group":"presale","headline":"Autoédition d'un recueil de poèmes qui parlent d'états d'âmes. Chemin rassemble des textes personnels et universels à la fois, écrits à \"je\", le mien mais qui pourrait être le tien","state":"successful","goal":"1800.0","funded":4501.0},{"id":19925,"permalink":"le-jardin-du-petit-pessicart","name":"LE JARDIN DU PETIT PESSICART","latitude":43.7303,"longitude":7.25861,"type_group":"reward","headline":"Un jardin pédagogique en permaculture au coeur de Nice.","state":"successful","goal":"6734.0","funded":7845.0},{"id":19611,"permalink":"lusine-vivante","name":"L'USINE VIVANTE","latitude":44.729,"longitude":5.02531,"type_group":"reward","headline":"Transformer une friche industrielle en un lieu professionnel, culturel et convivial","state":"successful","goal":"10000.0","funded":18852.0},{"id":21685,"permalink":"l-akanomy","name":"L'AKANOMY","latitude":46.5739054,"longitude":0.2319015,"type_group":"reward","headline":"Épicerie ambulante de Parthenay (79) et alentours pour des produits secs bio et locaux exclusivement en vrac","state":"successful","goal":"4500.0","funded":2080.0},{"id":29102,"permalink":"par4cheminsrando","name":"Par 4 Chemins : Séjours de randonnées éco-sensibles et équitables dans le Sud de la France !","latitude":43.6073323,"longitude":3.8764771,"type_group":"presale","headline":"Soutenez l’association à but non lucratif engagée en faveur d’un tourisme équitable, de proximité et respectueux de l’environnement ! Nous avons à cœur de rassembler et de créer du lien autour de la randonnée et des activités de pleine nature.","state":"successful","goal":"50.0","funded":6782.0},{"id":19608,"permalink":"la-semaine-de-la-transition-a-orleans","name":"LA SEMAINE DE LA TRANSITION A ORLEANS","latitude":47.86,"longitude":1.92053,"type_group":"reward","headline":"Contribuez à la première édition de ce festival gratuit et ouvert à toutes et tous sur le campus d'Orléans.","state":"successful","goal":"1000.0","funded":1190.0},{"id":25450,"permalink":"champion","name":"CHAMPION - Bistrot \u0026 Vie de quartier - Barbecue \u0026 Boustifaille - Bière artisanale \u0026 Vin nature","latitude":48.8956528,"longitude":2.3473156,"type_group":"reward","headline":"Après quelques années d'événements dans la rue, le Collectif BombeAO ouvre enfin son QG. Un petit bistrot nommé CHAMPION qui a besoin de votre aide pour parfaire son aménagement et ses travaux.","state":"successful","goal":"5100.0","funded":10431.0},{"id":29935,"permalink":"festival-superformances","name":"Superformances","latitude":44.5573932,"longitude":4.7524306,"type_group":"reward","headline":"Un festival de performance les 16, 17 et 18 septembre dans les rues et parcs de Montélimar pendant les journées du patrimoine.","state":"successful","goal":"5000.0","funded":4365.0},{"id":27177,"permalink":"le-pertuis","name":"LE PERTUIS, Un lieu d'accueil thérapeutique, artistique et culturel. De l'art thérapie au sein d'une ferme périgourdine bio","latitude":45.1588693,"longitude":1.1928737,"type_group":"reward","headline":"Un atelier d'art thérapie et un hébergement éco-construit pour des stages de groupe, séjours thérapeutiques individuels, résidences et expos...","state":"successful","goal":"11000.0","funded":9555.0},{"id":30765,"permalink":"resilienceterritoriale","name":"Résilience territoriale : (P)réparons nos territoires","latitude":47.21306415,"longitude":-1.5622410901460824,"type_group":"reward","headline":"Participez au développement du portail resilienceterritoriale.org afin de co-construire la résilience de nos sociétés à travers le monde entier. Objectif en cours : 300 % ! ","state":"successful","goal":"6000.0","funded":18091.0},{"id":26561,"permalink":"Accueil-Social-A-La-Marsottiere","name":"LA MARSOTTIÈRE : Chambre Sociale \u0026 Solidaire","latitude":46.886861,"longitude":5.314398,"type_group":"reward","headline":"Soutenez notre projet d’aménagement d’une chambre et d’une salle d’eau adaptées aux handicaps pour proposer une solution de tourisme Social \u0026 Solidaire à la ferme de la Marsottière","state":"successful","goal":"4500.0","funded":2795.0},{"id":20029,"permalink":"on-a-besoin-de-toits","name":"ON A BESOIN DE TOITS","latitude":45.7715,"longitude":3.11289,"type_group":"reward","headline":"Toi aussi, participe à la construction d'un tiers-lieu associatif à Clermont-Ferrand.","state":"successful","goal":"3000.0","funded":2170.0},{"id":31045,"permalink":"le-jardin-dans-les-saules","name":"Le Jardin dans Les Saules","latitude":48.6367327,"longitude":-3.2687941,"type_group":"reward","headline":"Une oseraie Bio en Bretagne","state":"successful","goal":"9000.0","funded":5526.0},{"id":28340,"permalink":"LesVoiesCirculaires","name":"Les Voies Circulaires","latitude":48.954665,"longitude":2.2997563,"type_group":"reward","headline":"Participez à l'aménagement et l'ouverture d'ateliers partagés pour les éco artisans! ","state":"successful","goal":"3000.0","funded":1065.0},{"id":29115,"permalink":"dom-dam","name":"DÔM-DÂM - Une bulle en harmonie avec la nature.","latitude":46.955615,"longitude":-0.5924554,"type_group":"reward","headline":"Aidez-moi à financer mon dôme témoin. Une Bulle inspirée de la nature pour créer le bien-être.","state":"successful","goal":"1300.0","funded":805.0},{"id":30124,"permalink":"pavillon-bruit-blanc","name":"BRUIT BLANC sort son Pavillon","latitude":44.8900046,"longitude":6.6348916,"type_group":"donation","headline":"Contribuez à la création du \"PAVILLON Bruit Blanc\", une scène dédiée aux musiques actuelles, entièrement mobile et alimentée en énergie par des vélos !","state":"successful","goal":"8000.0","funded":8025.0},{"id":19786,"permalink":"la-fabullerie","name":"LA FABULLERIE","latitude":45.7520405,"longitude":4.8270381,"type_group":"reward","headline":"Votre espace d'activités en famille à Lyon.","state":"successful","goal":"5000.0","funded":8730.0},{"id":20808,"permalink":"lacabanebleue","name":"EDITIONS LA CABANE BLEUE","latitude":47.49446895,"longitude":-1.49856261401254,"type_group":"reward","headline":"Participez à la construction de notre cabane d'édition et au lancement de nos 4 premiers livres jeunesse dédiés à l'écologie !","state":"successful","goal":"12000.0","funded":14194.42},{"id":19785,"permalink":"la-citoyenne-solaire","name":"LA CITOYENNE SOLAIRE","latitude":45.648,"longitude":1.11722,"type_group":"reward","headline":"Adopte un panneau solaire en Périgord-Limousin !","state":"successful","goal":"1500.0","funded":3610.0},{"id":25714,"permalink":"grainesdesaintgermain","name":"Participez à la création d’une micro-ferme multi-activités !","latitude":47.6481943,"longitude":-3.1871236,"type_group":"reward","headline":"Nous sommes 4 à porter ce projet de “micro”-ferme avec un “maxi” peps’!","state":"successful","goal":"12000.0","funded":17720.0},{"id":24599,"permalink":"cantilana-veste-en-feutre-de-laine","name":"Cantilana : des vestes en laine feutrée fabriquées localement","latitude":43.1457701,"longitude":1.3040443,"type_group":"reward","headline":"Participez à rénover un atelier et fournir de la matière première pour une feutrière motivée !","state":"successful","goal":"8000.0","funded":7971.0},{"id":21393,"permalink":"tonalbumarcenciel","name":"TON ALBUM ARC-EN-CIEL","latitude":48.8789705,"longitude":2.2941557,"type_group":"reward","headline":"Participez à l’auto-édition du premier livre de naissance pour famille homoparentale, conçu par des LGBTQI+ pour les LGBTQI+ ! ","state":"successful","goal":"5500.0","funded":5100.0},{"id":20593,"permalink":"la-cuverie","name":"LA CUVERIE","latitude":47.7149023,"longitude":3.6650811,"type_group":"reward","headline":"Aidez-nous pour le lancement de la microbrasserie La Cuverie : des bières bio dans un lieu convivial !","state":"successful","goal":"5000.0","funded":5773.33},{"id":19766,"permalink":"une-souris-verte","name":"UNE SOURIS VERTE","latitude":45.7486692,"longitude":4.8465438,"type_group":"reward","headline":"Une association née de la volonté de parents d’enfants différents.","state":"successful","goal":"5000.0","funded":5260.0},{"id":23181,"permalink":"ecceterra83","name":"Soutenons ECCE TERRA,  Restaurant Ecoresponsable et Culturel , lieu unique et atypique, au coeur du Var    ","latitude":43.3900517,"longitude":6.3442172,"type_group":"reward","headline":"Notre slogan: Réunir Nature et Culture autour d'une assiette, en savourant l'Instant Présent!","state":"successful","goal":"6200.0","funded":1100.0},{"id":24148,"permalink":"rennes-des-possibles","name":"Rennes des possibles","latitude":48.1123508,"longitude":-1.6719285,"type_group":"reward","headline":"12 aventures inspirantes pour imaginer les solutions de demain !","state":"successful","goal":"5000.0","funded":4139.0},{"id":19982,"permalink":"lecole-du-jardin-a-grandir","name":"L'ECOLE DU JARDIN A GRANDIR","latitude":46.3425,"longitude":0.373021,"type_group":"reward","headline":"Première école alternative du sud-Vienne (86).","state":"successful","goal":"2500.0","funded":4111.0},{"id":30574,"permalink":"l-eure-dans-l-bocal","name":"L'Eure dans l'bocal !","latitude":49.3740589,"longitude":0.5257584,"type_group":"reward","headline":"Il est l’Eure de passer au vrac ! Participez à l’ouverture de « L’Eure dans l’bocal », une épicerie rurale et sans emballage jetable de produits locaux mais pas que… à Saint Mards de Blacarville !","state":"successful","goal":"4000.0","funded":3110.0},{"id":28632,"permalink":"archeo-ceramique","name":"Atelier Archéo-Céramique","latitude":47.497568,"longitude":6.405005,"type_group":"reward","headline":"Réhabilitation d'une ancienne bergerie en atelier de poterie, afin de développer des ateliers autour des techniques anciennes de la poterie.","state":"successful","goal":"5000.0","funded":5900.0},{"id":31610,"permalink":"vagamundo-rebondir","name":"Éditions Vagamundo : REBONDIR !","latitude":47.8742916,"longitude":-3.8001609,"type_group":"reward","headline":"Redonnons du souffle aux éditions Vagamundo, fragilisées par la pandémie !","state":"successful","goal":"5000.0","funded":3569.0},{"id":27651,"permalink":"tiers-lieu-savoir-faire-manuel","name":"Le tiers-lieu toulousain du savoir-faire manuel..","latitude":43.629348,"longitude":1.423388,"type_group":"reward","headline":"Participez au financement des outils et machines accessibles dans les espaces partagés","state":"successful","goal":"4500.0","funded":705.0},{"id":19805,"permalink":"les-vergers-du-rucher-abelha","name":"LES VERGERS DU RUCHER ABELHA","latitude":43.5907797,"longitude":6.9336951,"type_group":"reward","headline":"Création de vergers conservatoires dans les Alpes-Maritimes","state":"successful","goal":"8050.0","funded":20006.0},{"id":29135,"permalink":"container_pour_ferme_agrobiologique","name":"Ferme des Hauts Jardins cherche nid douillet pour outils non rouillés","latitude":50.6383441,"longitude":3.1688313,"type_group":"reward","headline":"Installer un container pour stocker des outils et du matériel sur la ferme agroforestière et biologique","state":"successful","goal":"10530.0","funded":8822.0},{"id":28519,"permalink":"VIND","name":"VIND 2.0","latitude":46.603354,"longitude":1.8883335,"type_group":"reward","headline":"Soutenez le nouvel album de VIND.","state":"successful","goal":"6000.0","funded":4140.0},{"id":19573,"permalink":"nature-et-progres-le-livre","name":"NATURE ET PROGRES, LE LIVRE","latitude":43.8892,"longitude":1.91009,"type_group":"reward","headline":"Producteurs Nature et Progrès, acteurs d’une bio associative et solidaire","state":"successful","goal":"3000.0","funded":2605.0},{"id":28402,"permalink":"kiosque-lepainlevain","name":"Kiosque de vente de pains bio à Cabriès","latitude":43.4407104,"longitude":5.3800423,"type_group":"reward","headline":"Financer un kiosque de vente à Cabriès pour le fournil bio au levain naturel : Le pain, Levain -\u003e Le bourg sain ! (Lepainlevain.fr)","state":"successful","goal":"20000.0","funded":17401.0},{"id":29562,"permalink":"leslibreurs","name":"Les Libreurs : librairie-café indépendante et coopérative","latitude":42.9107378,"longitude":3.0272371,"type_group":"reward","headline":"Participez à la rénovation de notre local le Clos de Ninon à Leucate (ouverture prévue durant l'été 2022)","state":"successful","goal":"10000.0","funded":7753.0},{"id":21562,"permalink":"lesouriant","name":"Le SouRiant","latitude":42.8775546,"longitude":2.1838984,"type_group":"reward","headline":"La monnaie locale complémentaire de la Haute Vallée de l'Aude","state":"successful","goal":"11000.0","funded":3884.0},{"id":28005,"permalink":"lacompagniefermentee","name":"La Compagnie Fermentée : du pain bio au levain, et à plusieurs !","latitude":48.071382,"longitude":-1.7634019,"type_group":"reward","headline":"Soutenez La Compagnie Fermentée, nouvelle SCOP boulangère du pays rennais : Fournil coopératif fabriquant du pain bio au levain naturel distribué en circuits courts !","state":"successful","goal":"7250.0","funded":10860.0},{"id":20105,"permalink":"cafe-des-enfants-marelle-et-ricochet","name":"CAFÉ DES ENFANTS MARELLE ET RICOCHET","latitude":50.6633,"longitude":1.6873,"type_group":"reward","headline":"Soutenez le déménagement du café associatif de Boulogne sur mer\n\n","state":"successful","goal":"2500.0","funded":2720.0},{"id":23984,"permalink":"apiculture-locale","name":"Soutenir une apicultrice en installation, produire du miel local","latitude":44.7574719,"longitude":-0.6220801,"type_group":"reward","headline":"A l'état naturel, les abeilles s'installent à l'orée des bois ... et y restent toute l'année ! Je cherche à développer une apiculture locale et peu énergivore, en offrant à mes ruches des lieux préservés et diversifiés en flore. ","state":"successful","goal":"2000.0","funded":1689.0},{"id":28890,"permalink":"annee-lumiere","name":"L’Année lumière : Soutenez un programme éducatif innovant pour les jeunes !","latitude":45.7763265,"longitude":4.8033169,"type_group":"donation","headline":" Une expérience unique de plusieurs mois pour les 16-25 ans, destinée à les accompagner dans la construction de leur projet d’avenir (professionnel, personnel et citoyen). ","state":"successful","goal":"5500.0","funded":5345.0},{"id":22348,"permalink":"les-petits-domes-demenagent","name":"Les Petits Dômes déménagent ! ","latitude":45.755515,"longitude":3.3860493,"type_group":"reward","headline":"Le multi-accueil associatif Les Petits Dômes est contraint de déménager et a besoin de votre soutien. ","state":"successful","goal":"5000.0","funded":2455.0},{"id":19850,"permalink":"en-pleinart-5e-edition","name":"EN PLEIN'ART, 5e EDITION","latitude":43.1087,"longitude":1.37425,"type_group":"reward","headline":"Parcours artistique en plein air créé par des artistes professionnels et des étudiants en arts plastiques","state":"successful","goal":"1000.0","funded":1475.0},{"id":30243,"permalink":"projet-rosalie","name":"Projet Rosalie - Tournées de spectacles écoresponsables","latitude":47.2589424,"longitude":6.0434174,"type_group":"reward","headline":"Le Projet Rosalie est un rêve de spectacles tout public et zéro carbone dont tournées et représentations se feraient à bord du même véhicule : un vélo bus à dix pédaliers.","state":"successful","goal":"3850.0","funded":4670.0},{"id":28238,"permalink":"E-THAL","name":"E-THAL - plateforme communautaire multisport","latitude":45.7579293,"longitude":4.7650906,"type_group":"reward","headline":"Notre plateforme aide les sportifs amateurs et confirmés à se sentir en totale harmonie avec leur corps et leur esprit à travers différentes activités physiques et sportives. Nous vous promettons : une réelle communauté de sportifs, une qualité de service, un suivi régulier, de la bonne humeur et de la motivation sans faille ! ","state":"successful","goal":"3000.0","funded":696.0},{"id":28306,"permalink":"savonnerie-des-champs-libres","name":"Savonnerie des Champs Libres","latitude":44.4273481,"longitude":4.5433402,"type_group":"reward","headline":"Création d'une savonnerie artisanale dans une démarche écologique et responsable.","state":"successful","goal":"6000.0","funded":6575.0},{"id":19723,"permalink":"le-comptoir-du-vrac","name":"LE COMPTOIR DU VRAC","latitude":49.1849,"longitude":-0.369897,"type_group":"reward","headline":"Première épicerie vrac à Caen.","state":"successful","goal":"10000.0","funded":10966.0},{"id":20479,"permalink":"ruchers_gambille","name":"PARRAINEZ UN RUCHER PÉDAGOGIQUE !","latitude":48.491113,"longitude":-2.7241428,"type_group":"reward","headline":"Nous souhaitons pérenniser le projet de ruchers pédagogiques afin de développer nos actions de sensibilisation.","state":"successful","goal":"1000.0","funded":790.0},{"id":22357,"permalink":"cafe-dynamo","name":"CAFÉ DYNAMO","latitude":44.0509345,"longitude":2.1561508,"type_group":"reward","headline":"Equipement culturel dans le cadre du lancement d'un café culturel associatif à Carmaux, par l'association  CDC ( Citoyens pour une Dynamique Carmausine )","state":"successful","goal":"5000.0","funded":1387.0},{"id":19664,"permalink":"au-fil-du-faso","name":"AU FIL DU FASO","latitude":48.5805,"longitude":7.73174,"type_group":"reward","headline":"Ateliers de correspondance vidéo entre enfants de France et du Burkina Faso pour rencontrer la culture de l'autre.","state":"successful","goal":"4347.0","funded":6975.0},{"id":19753,"permalink":"laqui","name":"L'AQUI","latitude":44.9329,"longitude":1.25346,"type_group":"reward","headline":"Ne restez pas sur vos acquis, aidez la monnaie locale du Périgord noir à voir le jour !","state":"successful","goal":"1000.0","funded":1840.0},{"id":24752,"permalink":"collecte-roulemafrite-100Huile","name":"Camion de collecte 100% Huiles Végétales Recyclées","latitude":43.5464718,"longitude":1.4921324,"type_group":"reward","headline":"Roule Ma Frite 31 et les restaurateurs et restauratrices toulousain.es sont associés pour la récolte et la valorisation des déchets d'huiles alimentaires. Récolter les huiles végétales usagées sur Toulouse, c'est bien. Faire la récolte avec un véhicule fonctionnant à 100% d'huile recyclée, c'est mieux !","state":"successful","goal":"2000.0","funded":1702.0},{"id":19683,"permalink":"tierra-danse-flamenca","name":"TIERRA (DANSE FLAMENCA)","latitude":48.8625,"longitude":2.40025,"type_group":"reward","headline":"Une fresque contemporaine de la guerre d'Espagne, mêlant flamenco, danse contemporaine et mime.","state":"successful","goal":"1000.0","funded":1005.0},{"id":26968,"permalink":"collecte-eglantines-etc","name":"Ferme florale eglantines etc.","latitude":47.4466338,"longitude":7.2189399,"type_group":"reward","headline":"Une ferme florale qui produit des fleurs 100% bio et éthiques, cultivées puis sublimées avec amour !","state":"successful","goal":"17500.0","funded":21165.0},{"id":31176,"permalink":"voyageslowtech","name":"Mook - Voyages sans pétrole ni électricité, par le Low-Tech Journal","latitude":42.8890041,"longitude":1.3479117,"type_group":"presale","headline":"Une invitation aux voyages décarbonés. 132 pages d'aventures, à pied, à vélo, à voile, en trottinette, en pédalo ou char à voile, etc... jusque dans l'espace !","state":"successful","goal":"50.0","funded":14364.0},{"id":30535,"permalink":"frankisaband","name":"1er album du groupe FRANK","latitude":46.603354,"longitude":1.8883335,"type_group":"reward","headline":"Oyé Oyé braves gens ! FRANK a besoin de vous pour la suite. À votre bon cœur !","state":"successful","goal":"6000.0","funded":4511.0},{"id":28409,"permalink":"librairie-mezzanine-bouscat","name":"Ouverture de la librairie La petite mezzanine au Bouscat","latitude":44.865863399999995,"longitude":-0.6043314971416475,"type_group":"reward","headline":"Des livres pour tous les âges et pour tous les goûts! Grâce à vous, une librairie généraliste, animée et accueillante pourra ouvrir à deux pas du centre ville du Bouscat.","state":"successful","goal":"3000.0","funded":2750.0},{"id":30566,"permalink":"ma-petite-fourmi-antigaspi","name":"Ma Petite Fourmi - Anti Gaspi Bio et Local","latitude":45.7683367,"longitude":4.8342454,"type_group":"reward","headline":"Ouverture d'une épicerie antigaspi spécialisée dans les produits Bio et locaux","state":"successful","goal":"6000.0","funded":6205.0},{"id":19987,"permalink":"cendricom-defi-zero-megot","name":"CENDRICOM - DÉFI ZÉRO MÉGOT","latitude":45.8005,"longitude":4.80785,"type_group":"reward","headline":"La solution ludique de collecte et recyclage de mégots de cigarette !","state":"successful","goal":"5000.0","funded":3570.0},{"id":19523,"permalink":"aupres-de-nos-arbres","name":"AUPRÈS DE NOS ARBRES","latitude":45.4398,"longitude":4.38494,"type_group":"reward","headline":"Le livre qui témoigne en écrits et en images de la mobilisation éponyme en 2015.\n\n","state":"successful","goal":"6500.0","funded":4320.0},{"id":28241,"permalink":"NEO","name":"NEO","latitude":42.7014163,"longitude":2.8913562,"type_group":"reward","headline":"L'atelier des pains contraires    🌱Notre projet : une boulangerie centrée sur la production de pains bio, au levain naturel, à Perpignan.   👨‍🍳Notre philosophie : laisser le temps à la nature de faire son travail.   ✨Notre volonté : faire (re)découvrir au plus grand nombre le vrai goût du pain.","state":"successful","goal":"10000.0","funded":8360.0},{"id":20033,"permalink":"la-coop-sur-mer","name":"LA COOP SUR MER","latitude":43.119,"longitude":5.95175,"type_group":"reward","headline":"Contribuez à la création du premier supermarché coopératif de Toulon !","state":"successful","goal":"5000.0","funded":12745.0},{"id":23287,"permalink":"hadenn-plants-bio","name":"Bons plants pour les potagers!","latitude":48.41275445,"longitude":-4.6429443479677,"type_group":"reward","headline":"Besoin de matériel pour produire des plants bio de légumes et aromatiques, 100% variétés anciennes.","state":"successful","goal":"8000.0","funded":8235.0},{"id":20179,"permalink":"des-travaux-pour-la-calandreta-la-garriga","name":"DES TRAVAUX POUR LA CALANDRETA LA GARRIGA","latitude":43.6551,"longitude":3.55034,"type_group":"donation","headline":"Une nouvelle salle dédiée à l'animation * Amainatjar una sala dedicada a l'animacion.","state":"successful","goal":"5000.0","funded":4910.0},{"id":19549,"permalink":"la-colombine-un-habitat-groupe-atypique","name":"LA COLOMBINE, UN HABITAT GROUPE ATYPIQUE ","latitude":44.7265,"longitude":5.03111,"type_group":"reward","headline":"Restauration et extension du logement d'une personne handicapée.","state":"successful","goal":"3200.0","funded":7275.0},{"id":25499,"permalink":"sedna-app","name":"Sedna","latitude":43.5328198,"longitude":1.54881,"type_group":"reward","headline":"Le Seed, la monnaie qui chérit la planète, a besoin de vous pour voir le jour !","state":"successful","goal":"12500.0","funded":10592.339},{"id":30021,"permalink":"les-eco-lies","name":"Les éco-liés de la Nature","latitude":43.7185319,"longitude":7.2425338,"type_group":"reward","headline":"Quoi de mieux que de contribuer à l’accomplissement d’une école alternative à Nice, mariant immersion dans la Nature, pédagogie de projet, psychologie positive et permaculture ?","state":"successful","goal":"18509.0","funded":10583.0},{"id":30948,"permalink":"la-galoche","name":"La Galoche - café associatif","latitude":45.8243888,"longitude":4.8747733,"type_group":"reward","headline":"Participez à l’ouverture du café associatif La Galoche à Sathonay-Camp (69) !","state":"successful","goal":"10000.0","funded":6754.0},{"id":28925,"permalink":"poster-aideauxmigrants-mauxdespoir-utopia56","name":"Poster Maux d'espoir inédit pour l'association Utopia 56","latitude":48.8379249,"longitude":2.2912742,"type_group":"presale","headline":"Les artistes de Maux d'espoir mettent leurs plumes et leurs pinceaux au service d'Utopia 56, association créée en 2016 pour apporter aide d'urgence et hébergement solidaire aux migrant·es sur le sol français. ","state":"successful","goal":"50.0","funded":1025.0},{"id":27946,"permalink":"biocoop-caussade","name":"La placeta du magasin Biocoop Caussade","latitude":44.1325922,"longitude":1.5250788,"type_group":"reward","headline":"Participez à l'aménagement d'un espace dans le magasin Biocoop Caussade qui sera une véritable place du village (La placeta en Occitan). Un endroit de partages pour développer une consommation alimentaire meilleure pour tous !","state":"successful","goal":"3500.0","funded":3255.0},{"id":19697,"permalink":"la-miecyclette","name":"LA MIECYCLETTE","latitude":45.7240111,"longitude":4.8837255,"type_group":"reward","headline":"La boulangerie bio auto-gérée à Lyon change de vélo.","state":"successful","goal":"11000.0","funded":10469.12},{"id":30868,"permalink":"hepardi_microfournil","name":"Hé Pardi ! le micro fournil bio au levain","latitude":43.4429485,"longitude":3.7476387,"type_group":"reward","headline":"Aidez Caroline à ouvrir son micro fournil frontignanais de pains au levain naturel, pétris à la main, aux farines bio et locales.","state":"successful","goal":"4000.0","funded":4120.0},{"id":27518,"permalink":"vanessaindigualbijoux","name":"Vanessa Indigual : bijoux ethniques et élégants invitant à l'éveil des sens","latitude":43.9067375,"longitude":1.9056659,"type_group":"reward","headline":"Commandez votre bijou et soutenez un projet artisanal","state":"successful","goal":"5000.0","funded":1895.0},{"id":20000,"permalink":"la-scop-de-lautre-cote-de-la-rue-passe-a-lelectrique","name":"LA SCOP DE L'AUTRE CÔTÉ DE LA RUE PASSE À L'ÉLECTRIQUE !","latitude":45.7564277,"longitude":4.8430015,"type_group":"reward","headline":"Un vélo et un utilitaire électrique pour des livraisons pros zéro carbone à Lyon et ses alentours !","state":"successful","goal":"1800.0","funded":4060.0},{"id":20973,"permalink":"le-cado-by-odagaia","name":"LE CadO BY ODAGAIA","latitude":43.451923,"longitude":5.472613,"type_group":"reward","headline":"Grâce au coffret cadeau, vivez des expériences alternatives sur Marseille et sa région","state":"successful","goal":"3500.0","funded":1857.0},{"id":27025,"permalink":"librairie-le-tumulte-vouvray","name":"Librairie \"Le Tumulte\" à Vouvray","latitude":47.4123736,"longitude":0.7997694,"type_group":"reward","headline":"Une Librairie à Vouvray, ouverte à toutes les littératures, à toutes les pensées alternatives et écologiques, c'est la seule chose qui manque à ce village d'Indre et Loire dynamique et vivant !","state":"successful","goal":"10000.0","funded":9315.0},{"id":19746,"permalink":"le-staff","name":"LE STAFF","latitude":44.52539235,"longitude":2.28267299115304,"type_group":"reward","headline":"Brasserie café culturel à Cransac (Aveyron)","state":"successful","goal":"3000.0","funded":1090.0},{"id":29753,"permalink":"coop5pour100-va-de-lavant","name":"Coop 5 pour 100 : Soutenez un projet normand qui va de l'avant !","latitude":49.1759751,"longitude":-0.3337454,"type_group":"reward","headline":"Après bientôt 3 ans d’existence, la Coop 5 pour 100 a besoin de mieux s’équiper pour mieux accomplir sa mission, et a besoin de votre aide afin de réaliser les investissements nécessaires !","state":"successful","goal":"6900.0","funded":6682.0},{"id":20168,"permalink":"peire-boissiera-nouvel-album","name":"PEIRE BOISSIERA - NOUVEL ALBUM","latitude":43.292791,"longitude":-0.4029801,"type_group":"reward","headline":"Nouvel album DE TOT UN PAUC","state":"successful","goal":"2500.0","funded":2749.0},{"id":25878,"permalink":"oyobo-consigne-en-restaurant","name":"Sortir en boite pour 5€ ?","latitude":0.0,"longitude":0.0,"type_group":"presale","headline":"PRÉVENTE : Campagne de soutien aux restaurateurs de Saint-Paul pour qu'ils consignent leurs barquettes !","state":"successful","goal":"50.0","funded":55.0},{"id":20101,"permalink":"soutenez-la-happy-association","name":"SOUTENEZ LA HAPPY ASSOCIATION","latitude":50.3814,"longitude":2.01139,"type_group":"reward","headline":"Junior association à Saint-Pol-sur-Ternoise (Pas-de-Calais).","state":"successful","goal":"1000.0","funded":1075.0},{"id":20186,"permalink":"po-m-la-bulle-poetique","name":"Po.M - LA BULLE POÉTIQUE","latitude":48.037084,"longitude":4.919491,"type_group":"reward","headline":"Savonnerie artisanale et cosmétiques naturelles","state":"successful","goal":"5200.0","funded":2090.0},{"id":19656,"permalink":"kokoon","name":"KOKOON","latitude":48.8925,"longitude":2.37959,"type_group":"reward","headline":"Donner de l'énergie à l'Éducation","state":"successful","goal":"5000.0","funded":5475.0},{"id":19737,"permalink":"ensemble-propulsons-lhabitat-cooperatif","name":"ENSEMBLE, PROPULSONS L'HABITAT COOPÉRATIF !","latitude":45.7523572,"longitude":4.8411433,"type_group":"reward","headline":"Faisons passer le mouvement des coopératives d'habitants à l'échelle supérieure","state":"successful","goal":"10000.0","funded":16975.0},{"id":22714,"permalink":"leotoing","name":"UNE OASIS À LÉOTOING","latitude":45.3620828,"longitude":3.2218838,"type_group":"donation","headline":"Grâce à vos dons, le village de Léotoing va pouvoir faire venir des agriculteurs porteurs de projet et construire un séchoir solaire. Un pas de plus vers la redynamisation de ces belles collines d'Auvergne !","state":"successful","goal":"3200.0","funded":4110.0},{"id":29691,"permalink":"latrocquerie","name":"La trocquerie","latitude":47.21306415,"longitude":-1.5622410901460824,"type_group":"reward","headline":"Soutenez la trocquerie : boutique d'échange d'objets de seconde main à Nantes","state":"successful","goal":"3500.0","funded":4213.0},{"id":27948,"permalink":"je-soutiens-cree-ton-avenir","name":"Et si on apprenait enfin aux jeunes à s'orienter ! ","latitude":48.8351051,"longitude":2.3115978,"type_group":"donation","headline":"Donner les clés d'une orientation positive et épanouissante à 750 collégiens et lycéens grâce à un programme d'accompagnement sur toute l'année scolaire","state":"successful","goal":"1800.0","funded":1330.0},{"id":19584,"permalink":"les-entrepreneurs-cooperatifs-en-herbe","name":"LES ENTREPRENEURS COOPÉRATIFS EN HERBE !","latitude":46.0343,"longitude":4.06929,"type_group":"reward","headline":"Apportez un soutien précieux à la première Coopérative Jeunesse de Services du Roannais!","state":"successful","goal":"1000.0","funded":340.0},{"id":20074,"permalink":"watts-citoyens-pour-le-pays-darles","name":"WATTS CITOYENS POUR LE PAYS D'ARLES !","latitude":43.6816,"longitude":4.63504,"type_group":"reward","headline":"Développement citoyen de l'énergie renouvelable en Pays d'Arles.\n\n","state":"successful","goal":"8000.0","funded":1050.0},{"id":20087,"permalink":"ecolectif-notre-eco-hameau-se-lance-dans-le-coworking","name":"ECOLECTIF : NOTRE ECO-HAMEAU SE LANCE DANS LE COWORKING !","latitude":43.2678,"longitude":0.59298,"type_group":"reward","headline":"Écolectif revitalise nos campagnes de Haute-Garonne.","state":"successful","goal":"3000.0","funded":2110.0},{"id":20158,"permalink":"la-cabane-des-jeunes-pousses","name":"LA CABANE DES JEUNES POUSSES","latitude":47.237829,"longitude":6.0240539,"type_group":"reward","headline":"Micro-Crèche Bio-Eco-Responsable à Besançon (25) ","state":"successful","goal":"1620.0","funded":3465.0},{"id":20121,"permalink":"contre-une-centrale-a-gaz-en-bretagne","name":"CONTRE UNE CENTRALE A GAZ EN BRETAGNE","latitude":48.6786,"longitude":-3.82227,"type_group":"reward","headline":"Un projet de production d'électricité à base d'énergies fossiles - tous concernés.","state":"successful","goal":"22000.0","funded":3520.0},{"id":19528,"permalink":"lortulinu","name":"L'ORTULINU","latitude":41.4289,"longitude":9.18779,"type_group":"reward","headline":"Soutenez la création d'une boulangerie-épicerie biologique à Bonifacio !\n\n","state":"successful","goal":"15000.0","funded":12065.0},{"id":31374,"permalink":"lab-o-glaces-revees","name":"Le lab' O glaces rêvées","latitude":46.906114,"longitude":5.767941,"type_group":"reward","headline":"Aidez-nous à lancer un petit labo de production de sorbets pour le Jardin O Rêve de terre !","state":"successful","goal":"7800.0","funded":9889.33},{"id":19589,"permalink":"box-populi","name":"BOX POPULI","latitude":45.7701,"longitude":4.82869,"type_group":"reward","headline":"Déconnecter pour les moments importants !","state":"successful","goal":"3000.0","funded":4220.0},{"id":29915,"permalink":"la-base-montpellier","name":"La BASE : Base d'Action Sociale et  Ecologique","latitude":43.6073323,"longitude":3.8764771,"type_group":"donation","headline":"À Montpellier, Alternatiba/ANV-COP21, Greenpeace et Extinction Rebellion s'organisent pour créer dans les prochains mois... La BASE, un lieu de rassemblement d’initiatives citoyennes pour favoriser tous ensemble la transition écologique et sociale de la société !","state":"successful","goal":"20000.0","funded":20422.22},{"id":30607,"permalink":"Woodybus","name":"Woodybus","latitude":47.1685211,"longitude":-1.4722242,"type_group":"reward","headline":"Participez au lancement d'un nouveau concept de mobilité douce collective. Woodybus est un minibus à pédales destiné aux transports scolaires et périscolaires","state":"successful","goal":"16000.0","funded":11820.0},{"id":29863,"permalink":"lagraine34","name":"e-Graine: une application pour la monnaie locale et l'aide alimentaire","latitude":43.6052158,"longitude":3.8779447,"type_group":"reward","headline":"La Graine 34, la monnaie de l'Hérault, propose un paiement par application mobile. ","state":"successful","goal":"10000.0","funded":6892.0},{"id":27133,"permalink":"lesbiensencommun","name":"Les Biens en Commun - Mutualisons nos appareils domestiques","latitude":45.75572414852059,"longitude":4.860355313631408,"type_group":"reward","headline":"Aidez-nous à passer du prototype au déploiement large d'un service utile à chacun et réduisant l'impact de tous","state":"successful","goal":"9000.0","funded":10737.0},{"id":19580,"permalink":"les-briques-de-la-misericorde","name":"LES BRIQUES DE LA MISERICORDE","latitude":48.5198,"longitude":7.68252,"type_group":"reward","headline":"J'écris sur les murs le nom de ceux que j'aime en aidant une oeuvre","state":"successful","goal":"2500.0","funded":2510.0},{"id":29098,"permalink":"duventdanslesfleurs","name":"Participez à l'ouverture du café-cantine \u0026 épicerie Du vent dans les fleurs","latitude":46.7883653,"longitude":4.3874927,"type_group":"reward","headline":"Du vent dans les fleurs, c'est un café, un restaurant et aussi une épicerie de produits locaux située à Montcenis (juste à côté du Creusot) !","state":"successful","goal":"8000.0","funded":8675.0},{"id":20113,"permalink":"une-remorque-solidaire","name":"UNE REMORQUE SOLIDAIRE","latitude":47.1785,"longitude":-1.63061,"type_group":"reward","headline":"Développement durable du village de SOROMIATA en Guinée Forestière.","state":"successful","goal":"5000.0","funded":2408.0},{"id":20100,"permalink":"jardins-de-la-courte-echelle","name":"JARDINS DE LA COURTE ECHELLE","latitude":50.4813,"longitude":2.12862,"type_group":"reward","headline":"Vous êtes sensible à la préservation de l'environnement et à l'agriculture paysanne sans pesticide ? Je vous invite à soutenir mon projet d'installation en maraîchage bio sur la Côte d'Opale, à Landrethun-le-Nord.","state":"successful","goal":"3000.0","funded":3585.0},{"id":28725,"permalink":"saillans-le-film","name":"COMMUNE COMMUNE","latitude":44.6977514,"longitude":5.1972362,"type_group":"reward","headline":"Aidez-nous à diffuser le film sur 6 ans de démocratie participative à Saillans !","state":"successful","goal":"20000.0","funded":12745.0},{"id":29459,"permalink":"vagabonde-nouveau-four","name":"Vagabonde - pain BIEN élevé,                                                                                                    l’Histoire continue ","latitude":47.5342544,"longitude":3.6873621,"type_group":"reward","headline":"Construction d’un nouveau four maçonné à gueulard pour la suite de l'aventure !","state":"successful","goal":"15000.0","funded":20415.0},{"id":28043,"permalink":"vers-une-cantine-participative-saint-etienne","name":"Vers une Cantine Participative à Saint-Etienne","latitude":45.4423545,"longitude":4.3888706,"type_group":"reward","headline":"Soutenez l'installation d'une Cantine de Quartier : solidarité, convivialité et bien manger !","state":"successful","goal":"6000.0","funded":5850.0},{"id":29394,"permalink":"lerelaisjeunes","name":"Le Relais Jeunes","latitude":48.8562253,"longitude":2.3674121,"type_group":"reward","headline":"La marche-relais apartisane de 3.000 km qui fait le tour de la France à pied et à vélo pendant plus de 3 mois en ralliant 20 villes-étapes pour mobiliser les jeunes autour des enjeux environnementaux, sociaux et démocratiques.","state":"successful","goal":"10000.0","funded":10534.51},{"id":29651,"permalink":"le-metier-a-tisser","name":"Le Métier à Tisser - des relations adulte-enfant sereines et équilibrées","latitude":48.8442724,"longitude":2.5475774,"type_group":"reward","headline":"Donner accès à de nouvelles méthodes aux parents et professionnels de l'enfance pour surmonter leurs croyances, blocages et traumatismes enfouis et sortir ainsi de la violence éducative.","state":"successful","goal":"2700.0","funded":2100.0},{"id":29246,"permalink":"pieuvre-noire","name":"Pieuvre Noire en marche vers le ré-emploi","latitude":45.7549828,"longitude":4.9350991,"type_group":"reward","headline":"Un kombucha artisanal, bio et local en bouteilles ré-employables","state":"successful","goal":"3900.0","funded":3635.0},{"id":29941,"permalink":"LePetitNey-Moskowa","name":"La Moskowa, histoire d'un quartier racontée par Le Petit Ney","latitude":48.8987068,"longitude":2.3347208,"type_group":"reward","headline":"Un livre pour revenir sur l'origine, l'évolution, le parcellaire particulier et la profonde transformation à la fin du siècle dernier de ce quartier. ","state":"successful","goal":"3000.0","funded":917.0},{"id":27114,"permalink":"2030glorieuses","name":"2030 glorieuses : le guide des conversations utopiques","latitude":45.74519112137225,"longitude":4.790997369152445,"type_group":"reward","headline":"Voyagez avec vos proches à la découverte des utopies réalistes.","state":"successful","goal":"10000.0","funded":12397.5},{"id":28744,"permalink":"renard-en-herbe","name":"Ferme du Renard en Herbe","latitude":47.678564,"longitude":4.525148,"type_group":"reward","headline":"Diversité en haute Côte-d’Or : des fruits, du cidre et des tisanes produits par La Ferme du Renard en Herbe","state":"successful","goal":"6000.0","funded":4232.0},{"id":29217,"permalink":"ferme-de-dixmerie","name":"La Ferme de Dixmerie se diversifie, pour mieux protéger le Marais poitevin","latitude":46.41267,"longitude":-1.2202197,"type_group":"reward","headline":"Mettre en place du maraichage pour cuisiner la viande de la race bovine Maraichine, en bio. ","state":"successful","goal":"10318.0","funded":6165.0},{"id":19614,"permalink":"energie-solidaire","name":"ENERGIE SOLIDAIRE","latitude":48.8838,"longitude":2.38562,"type_group":"reward","headline":"Un projet innovant au service de la lutte contre la précarité énergétique","state":"successful","goal":"2000.0","funded":8927.0},{"id":20098,"permalink":"le-tour-alternatiba-fait-etape-a-clermont-ferrand","name":"LE TOUR ALTERNATIBA FAIT ETAPE A CLERMONT-FERRAND","latitude":45.7793,"longitude":3.07869,"type_group":"reward","headline":"Le 17 juin au Jardin Lecoq, changeons le système pas le climat !\n\n","state":"successful","goal":"3000.0","funded":1122.0},{"id":29549,"permalink":"snackbibliobar","name":"L'Embuscaf' - Snack Bibliobar","latitude":44.3238415,"longitude":3.5941587614068444,"type_group":"reward","headline":"Contribuez à un bar engagé dans le circuit court et l'alimentation de qualité ! Soutenez une démarche solidaire avec les producteurs et les consommateurs. ","state":"successful","goal":"6000.0","funded":6959.66},{"id":29931,"permalink":"aux-champs-libres","name":"CHAMPS LIBRES","latitude":44.4555622,"longitude":4.2181613,"type_group":"reward","headline":"Financez avec nous les aménagements extérieurs. On aimerait offrir un lieu de rencontres convivial pour parler, partager, faire connaissance… ou tout simplement boire un verre ensemble.","state":"successful","goal":"25000.0","funded":17760.0},{"id":19875,"permalink":"un-nouveau-nid-pour-les-oiseaux-livres","name":"UN NOUVEAU NID POUR LES OISEAUX LIVRES !","latitude":45.5147,"longitude":1.20263,"type_group":"reward","headline":"Aidez la librairie à s'agrandir : nouveau local et élargissement de l'offre","state":"successful","goal":"5000.0","funded":2720.0},{"id":19698,"permalink":"mille-arepas","name":"MILLE AREPAS","latitude":50.3776,"longitude":2.29726,"type_group":"reward","headline":"Cuisine-mobile : la gastronomie vénézuélienne authentique dans le Pas-de-Calais !\n\n","state":"successful","goal":"4000.0","funded":4292.0},{"id":29349,"permalink":"portraits-d-habitant-e-s","name":"Portraits d'Habitant.e.s","latitude":48.5203919,"longitude":-3.481727,"type_group":"reward","headline":"Nous, habitantes et habitants de Loguivy-Plougras et alentours, nous voulons au travers de portraits écrits et dessinés, mettre en valeur les visages multiples qui dessinent notre campagne. Une joyeuse excuse pour nous rencontrer et développer les maillages entre habitant-e-s. ","state":"successful","goal":"2000.0","funded":910.0},{"id":20418,"permalink":"le-vg-cantine-vegetale","name":"LA CANTINE VÉGÉTALE","latitude":0.0,"longitude":0.0,"type_group":"reward","headline":"Une cuisine engagée, 100% végétale, bio, locale et zéro Déchet !","state":"successful","goal":"6000.0","funded":6050.0},{"id":19979,"permalink":"galopins-du-sancy","name":"GALOPINS DU SANCY","latitude":45.5598,"longitude":2.90453,"type_group":"reward","headline":"Une des premières entreprises sociales équestres en France !","state":"successful","goal":"5000.0","funded":5415.0},{"id":27270,"permalink":"sur-le-plateau","name":"SUR LE PLATEAU - Crèmerie / Fromagerie ","latitude":43.4597307,"longitude":3.423311,"type_group":"reward","headline":"Un coup de pouce pour l'ouverture de la nouvelle crèmerie fromagerie de Pézenas !","state":"successful","goal":"3000.0","funded":4285.0},{"id":19825,"permalink":"micro-creche-de-la-source","name":"MICRO-CRÈCHE DE LA SOURCE","latitude":47.7312,"longitude":-3.44952,"type_group":"reward","headline":"Une 'communauté enfantine' bienveillante pour les enfants à Ploemeur (Morbihan).","state":"successful","goal":"2500.0","funded":2010.0},{"id":19909,"permalink":"mam-solunid","name":"MAM SOLU'NID","latitude":46.0664,"longitude":6.29275,"type_group":"reward","headline":"Communauté Enfantine à Eteaux (Haute-Savoie)","state":"successful","goal":"6842.0","funded":4360.0},{"id":21319,"permalink":"fermeatoutboutdechamp","name":"LA FERME A TOUT BOUT DE CHAMP OUVRE SES PORTES","latitude":48.1705507,"longitude":-0.2985787,"type_group":"reward","headline":"Pour l'accueil du public dès le printemps 2020 dans une ferme pédagogique en Mayenne.","state":"successful","goal":"4800.0","funded":5600.0},{"id":20006,"permalink":"haut-les-pains-larchitecte-boulanger","name":"HAUT LES PAINS ! L'ARCHITECTE BOULANGER","latitude":43.7429,"longitude":5.3117,"type_group":"reward","headline":"Boulangerie bio à Lauris dans le Luberon.\n\n","state":"successful","goal":"6000.0","funded":10785.0},{"id":19538,"permalink":"un-poste-de-sante-au-senegal","name":"UN POSTE DE SANTE AU SENEGAL","latitude":48.5721,"longitude":1.94388,"type_group":"reward","headline":"Equipement médical d'un poste de santé à Sindia.\n\n","state":"successful","goal":"10000.0","funded":1255.0},{"id":30004,"permalink":"compagnie-du-chien-rouge","name":"ALBUM ESPERANÇA","latitude":45.550411,"longitude":2.940581368088946,"type_group":"reward","headline":"Réalisation du 2ème album d'HUMUS MACHINE, chansons enracinées en français et occitan","state":"successful","goal":"3050.0","funded":1185.0},{"id":20123,"permalink":"lelfe-epicerie-locale-favorisant-lentraide","name":"L'ELFE, ÉPICERIE LOCALE FAVORISANT L'ENTRAIDE","latitude":48.0728,"longitude":-2.35005,"type_group":"reward","headline":"Pour une épicerie solidaire itinérante en pays de Brocéliande.","state":"successful","goal":"1500.0","funded":1230.0},{"id":21843,"permalink":"maison-commune-saint-auban","name":"UNE MAISON COMMUNE À SAINT-AUBAN","latitude":44.0904345142363,"longitude":6.00622880238354,"type_group":"reward","headline":"Le journal L'âge de faire, la MJC de Saint-Auban et l'association Graines de cultures créent un lieu partagé à vocation sociale, économique, écologique et culturelle, pour participer à la transition de cette cité ouvrière de Haute-Provence. Les fonds collectés nous permettront de rénover le toit de notre bâtiment.","state":"successful","goal":"14040.0","funded":10606.99},{"id":25195,"permalink":"fournildescoquelicots","name":"Fournil des Coquelicots","latitude":45.6945267,"longitude":-0.3238106,"type_group":"reward","headline":"Dernier coup de pouce avant l'ouverture !","state":"successful","goal":"5000.0","funded":5714.0},{"id":25323,"permalink":"vetethic-demenage","name":"Une nouvelle boutique pour les 10 ans de Vêt Ethic !","latitude":48.6885726,"longitude":6.1842302,"type_group":"reward","headline":"Aidez Vêt Ethic à financer son emménagement dans ses nouveaux locaux","state":"successful","goal":"7500.0","funded":8375.0},{"id":20027,"permalink":"pour-la-survie-des-palmiers","name":"POUR LA SURVIE DES PALMIERS","latitude":43.3299,"longitude":3.25706,"type_group":"reward","headline":"lutte contre le charançon rouge et le papillon","state":"successful","goal":"5000.0","funded":1020.0},{"id":19961,"permalink":"lalbum-de-la-consecration","name":"L'ALBUM DE LA CONSECRATION","latitude":44.928,"longitude":2.43987,"type_group":"reward","headline":"Vous avez aimé CHAMAN CHAMAN ? Vous adorerez NEWEZ !!!","state":"successful","goal":"2195.0","funded":2172.0},{"id":20198,"permalink":"plan-b-nancy","name":"PLAN B NANCY","latitude":48.6862,"longitude":6.17738,"type_group":"reward","headline":"Il n'y a pas de Planète B... il y a le Plan B !","state":"successful","goal":"15000.0","funded":15880.0},{"id":30247,"permalink":"ayu-premier-album-duo-dor-et-de-paille","name":"ĀYU - premier album du duo d'Or et de Paille","latitude":48.7481252,"longitude":6.2007557,"type_group":"reward","headline":"louanges sacrées et profanes du monde en hommage à la vie !","state":"successful","goal":"4500.0","funded":5110.0},{"id":20048,"permalink":"yaf-keru-jardin-de-corail","name":"YAF KÉRU, JARDIN DE CORAIL","latitude":46.1619,"longitude":-1.17684,"type_group":"reward","headline":"Une mission de restauration et de conservation des récifs coralliens en Papouasie occidentale.","state":"successful","goal":"1000.0","funded":1695.0},{"id":25376,"permalink":"nousdailleurs","name":"Exposition expérientielle \"Nous d'ailleurs\"","latitude":48.892083,"longitude":2.37537,"type_group":"donation","headline":"Achevons ensemble la fabrication d'une exposition unique et expérientielle sur l'ethnocentrisme français, un nouvel outil pédagogique d’éducation aux migrations","state":"successful","goal":"10000.0","funded":12061.0},{"id":19512,"permalink":"moi-citoyen","name":"MOI, CITOYEN","latitude":45.7608,"longitude":4.92233,"type_group":"reward","headline":"Soyons le changement que nous voulons pour le monde, la transition est en marche… Soutenez la campagne « Moi, Citoyen » et la journée de la transition du 27 septembre prochain !","state":"successful","goal":"5000.0","funded":3641.0},{"id":19619,"permalink":"un-batiment-pour-de-bonnes-farines","name":"UN BATIMENT POUR DE BONNES FARINES","latitude":47.7754,"longitude":4.29508,"type_group":"reward","headline":"Cultiver des céréales anciennes pour retrouver de la qualité.\n\n","state":"successful","goal":"15000.0","funded":23445.0},{"id":19741,"permalink":"bio-coherence","name":"BIO COHÉRENCE","latitude":48.8660645,"longitude":2.3676004,"type_group":"reward","headline":"Trouvez les fermes et les produits Bio Cohérence près de chez vous.","state":"successful","goal":"1300.0","funded":2915.0},{"id":19588,"permalink":"sens-commun-lexpedition-le-documentaire","name":"SENS COMMUN L’EXPÉDITION - LE DOCUMENTAIRE","latitude":48.9369,"longitude":2.35069,"type_group":"reward","headline":"Aidez-nous à donner vie à 8 mois de tournage d'initiatives inspiratrices !","state":"successful","goal":"4000.0","funded":5880.0},{"id":26285,"permalink":"Maison-Solidaire-Alzheimer","name":"Colocations Solidaires pour Personnes Alzheimer","latitude":48.7658759,"longitude":2.1376746,"type_group":"donation","headline":"Nous avons acheté une première maison que nous renovons pour créer 8 habitats partagés accompagnés pour personnes Alzheimer. Aujourd'hui, nous avons besoin de dons pour pouvoir équiper les lieux de vies partagés.","state":"successful","goal":"6000.0","funded":1700.0},{"id":20896,"permalink":"la-mecanique-du-plastique","name":"LA MÉCANIQUE DU PLASTIQUE","latitude":48.4890686,"longitude":-1.9921439,"type_group":"donation","headline":"Et le plastique dans la mer, on en fait quoi ? Et bien on va le ramasser et on fait en sorte qu'il n'y retourne pas, voilà notre objectif pour cette campagne.","state":"successful","goal":"5000.0","funded":5293.0},{"id":29565,"permalink":"le11redwheelbarrowbookstore","name":" The Red Wheelbarrow Bookstore","latitude":48.8482049,"longitude":2.3398243,"type_group":"reward","headline":"La librairie Red Wheelbarrow, une librairie indépendante du 6e arrondissement de Paris, lève des fonds pour son projet d'expansion en deux parties !","state":"successful","goal":"5000.0","funded":5355.0},{"id":22549,"permalink":"pqvt2019","name":"POUR QUE VIVE LA TERRE, LA CARAVANE DES ALTERNATIVES","latitude":43.2092388,"longitude":2.3705701,"type_group":"donation","headline":"Rencontres des alternatives urbaines et paysannes à travers 5 pays et 2 continents","state":"successful","goal":"4020.0","funded":2615.0},{"id":27010,"permalink":"agrandissement-de-supercoop","name":"Supercoop, le supermarché qui change tout !","latitude":44.8146014,"longitude":-0.5541925,"type_group":"reward","headline":"Supercoop grandit ! notre coopérative de consommateurs réorganise son magasin pour offrir plus de vrac et plus de choix pour une consommation qui a plus de sens. Aidez-nous à investir dans du bon matériel pour développer notre offre Zéro déchets ! ","state":"successful","goal":"3500.0","funded":4435.0},{"id":26371,"permalink":"le-pain-leve","name":"Le Pain Levé","latitude":49.0419489,"longitude":-1.3945604,"type_group":"reward","headline":"Deux boulangers et une SCOP pour un Fournil 100% bio","state":"successful","goal":"5000.0","funded":7525.0},{"id":19548,"permalink":"le-local-montbio","name":"LE LOCAL MONT'BIO","latitude":45.5048,"longitude":6.06567,"type_group":"reward","headline":"Un nouvel espace alternatif pour le magasin bio de Montmélian.","state":"successful","goal":"2800.0","funded":3750.0},{"id":25873,"permalink":"comme-un-cheveu-sur-la-soupe","name":"Un fournil et labo de pâtisseries sans gluten !","latitude":49.1785029,"longitude":-0.3796736,"type_group":"reward","headline":"Aidez-nous à financer la création de notre fournil et labo sans gluten, pour nous permettre de développer notre activité en créant un poste ! ","state":"successful","goal":"10000.0","funded":12050.0},{"id":22848,"permalink":"chez-marguerite","name":"LE BUS «CHEZ MARGUERITE»","latitude":50.1316097,"longitude":2.7794538,"type_group":"reward","headline":"Café citoyen nomade","state":"successful","goal":"8000.0","funded":3111.0},{"id":26047,"permalink":"unefleurvenueduciel","name":"Une Fleur venue du Ciel - Un conte initiatique sur la naissance de la Rose. ","latitude":48.6333388,"longitude":2.4417827,"type_group":"presale","headline":"PRÉVENTE : L'autoédition et la promotion d'un conte spirituel et poétique. ","state":"successful","goal":"50.0","funded":536.0},{"id":20413,"permalink":"attire-d-ailes","name":"ATTIRE D'AILES","latitude":45.9387281,"longitude":6.7042161,"type_group":"reward","headline":"Avis à tous les amoureux de produits uniques, zéro déchet et originaux... pensez aux cadeaux de Noël ou faites-vous plaisir en soutenant ce projet de boutique 100% local 100% fait main !!! Allez chaque petit coup de pouce est le bienvenu : soyez le changement que vous voulez voir dans ce monde ! 🙏❤️ MERCI","state":"successful","goal":"3000.0","funded":710.0},{"id":30144,"permalink":"maptiteboitedejeux","name":"Ma P'tite Boîte de Jeux","latitude":44.5415567,"longitude":3.6667702,"type_group":"reward","headline":"Aidez-moi à rendre l'accueil de ma caravane plus cosy à l'intérieur comme à l'extérieur et à proposer un maximum de jeux de société à tester.","state":"successful","goal":"2500.0","funded":3267.0},{"id":25360,"permalink":"evenementiel-impact","name":"Création de la 1re Coopérative d'organisation d'évènements Eco-Socio-Responsables","latitude":49.1828008,"longitude":-0.3690815,"type_group":"reward","headline":"Nous avons qu'une seule idée en tête... Prouver que nous pouvons faire de l'évènementiel autrement, en organisant des évènements engagés sur le territoire avec une démarche environnementale et sociale forte","state":"successful","goal":"5000.0","funded":1980.0},{"id":28529,"permalink":"boutique-momes","name":"Môm(es) - A Angers, la boutique éco-responsable de puériculture, maternité et parentalité","latitude":47.4733963,"longitude":-0.550562,"type_group":"reward","headline":" Nous croyons qu’il est possible de concilier parentalité et consommation responsable. Vous aussi ? Participez à l'aventure Môm(es), pour nous aider à ouvrir une boutique proposant des produits éco-responsables pour bébé et maman, ainsi qu'une librairie et des ateliers apportant des réponses sur la parentalité d’aujourd’hui !","state":"successful","goal":"6500.0","funded":5615.0},{"id":31799,"permalink":"aux-temps-inspires","name":"Aux Temps Inspirés","latitude":43.5280751,"longitude":5.441685,"type_group":"reward","headline":"Pour s’apaiser, se déployer... se réenchanter","state":"successful","goal":"2500.0","funded":2265.0},{"id":22263,"permalink":"synkrominos","name":"SYNKROMINOS Le jeu de cartes pour des réunions efficaces, sereines et joyeuses !","latitude":43.5452909,"longitude":-1.4941561,"type_group":"reward","headline":"Prévente du jeu et financement pour un mode d'emploi interactif et un support de communication en vidéo","state":"successful","goal":"3000.0","funded":4040.0},{"id":31095,"permalink":"la-frap","name":"Une distillerie artisanale dans le Sud Ardèche","latitude":44.4839231,"longitude":4.1611291,"type_group":"reward","headline":"SOUTENEZ-NOUS DANS LE LANCEMENT DE NOTRE PROJET !","state":"successful","goal":"8000.0","funded":9566.0},{"id":20071,"permalink":"akhdar-le-sel-du-desert","name":"AKHDAR, LE SEL DU DÉSERT","latitude":46.1165,"longitude":4.73722,"type_group":"reward","headline":"Un documentaire artistique, sur la vie nomade en Mauritanie.","state":"successful","goal":"3000.0","funded":4788.0},{"id":29586,"permalink":"guideTGG2","name":"Le Guide pour Consommer Responsable à Lyon et ses environs - 2ème édition","latitude":45.7539278,"longitude":4.8670415,"type_group":"donation","headline":"Contribuez à la sortie de la nouvelle édition du Guide pour Consommer Responsable à Lyon de l'association The Greener Good !","state":"successful","goal":"6000.0","funded":5644.0},{"id":19520,"permalink":"les-oiseaux-livres-libraire-effervescente","name":"LES OISEAUX LIVRES, LIBRAIRE EFFERVESCENTE","latitude":45.5147,"longitude":1.20263,"type_group":"reward","headline":"Ouverture de la librairie réussie. Un immense Merci !\n\n","state":"successful","goal":"3230.0","funded":3231.0},{"id":28562,"permalink":"infinithe","name":"Infinithé, une écopâtisserie gourmande et itinérante","latitude":47.2821567,"longitude":-1.4475749,"type_group":"reward","headline":"Un zeste par-ci, un zeste par là, te voilà à financer les couteaux et fouets de mon pâtiss' truck itinérant ! Un peu de toi, de moi et d'amour dans les futures gourmandises à retrouver sur les marchés, au laboratoire de production et en ligne.","state":"successful","goal":"6200.0","funded":3042.0},{"id":31451,"permalink":"anes-maraichers-forez","name":"Ânes maraîchers en Forez","latitude":45.8076182,"longitude":3.5393803,"type_group":"reward","headline":"Participez à la mise en place de la traction animale avec des ânes dans une ferme maraîchère bio de moyenne montagne en Auvergne.","state":"successful","goal":"14000.0","funded":20416.0},{"id":26727,"permalink":"tipis-volants","name":"Tipis volants, la première coopérative de garde d'enfants en France.","latitude":48.892086,"longitude":2.42347,"type_group":"reward","headline":"Tipis Volants réinventent la garde d'enfant à domicile. Rejoignez l'aventure dès maintenant !","state":"successful","goal":"5000.0","funded":1205.0},{"id":31734,"permalink":"lepain-lesmiscellanees","name":"Les Miscellanées, boulangerie engagée et motivée","latitude":43.6232212,"longitude":3.474898,"type_group":"reward","headline":"Du pain bio au levain qui a besoin de votre soutien ! Pour une agriculture bio et locale, du champ à vos assiettes.","state":"successful","goal":"10000.0","funded":10190.0},{"id":28929,"permalink":"KPLN-don","name":"KPLN - vêtements naturels \u0026 écologiques","latitude":43.1211383,"longitude":5.8128501,"type_group":"reward","headline":"Mode éthique et saine, solutions alternatives et plus respectueuses, pour l’environnement et la santé","state":"successful","goal":"5000.0","funded":1808.0},{"id":30182,"permalink":"energie-jeunes-gresivaudan-2022","name":"Energie Jeunes Grésivaudan 2022-2023","latitude":45.2729614,"longitude":5.8694191,"type_group":"donation","headline":"Des Jeunes parlent aux Jeunes du climat et de l’énergie pour amplifier la transition énergétique dans le Grésivaudan","state":"successful","goal":"8000.0","funded":3490.0},{"id":24066,"permalink":"lecamiondelivermore","name":"Le camion de Livermore.","latitude":49.6398486,"longitude":-1.5712057,"type_group":"reward","headline":"La réparation, la vraie, partout !","state":"successful","goal":"10000.0","funded":11515.0},{"id":26697,"permalink":"SaveurSauvage","name":"Saveur Sauvage","latitude":44.0568331,"longitude":7.5872449,"type_group":"reward","headline":"En échange de visites naturalistes, soutenez la réhabilitation d'une châtaigneraie à l'abandon suivant les principes de permaculture","state":"successful","goal":"8000.0","funded":9260.0},{"id":20078,"permalink":"le-vaisseau-solaire-du-pas-de-calais","name":"LE VAISSEAU SOLAIRE DU PAS-DE-CALAIS","latitude":50.7284,"longitude":1.60635,"type_group":"reward","headline":"Sensibiliser les citoyens à la bonne alimentation dés le plus jeune âge.","state":"successful","goal":"4602.0","funded":1444.0},{"id":21507,"permalink":"La-Bogeotte-des-lilas","name":"LA BOGEOTTE DES LILAS","latitude":48.4287602,"longitude":6.1695502,"type_group":"reward","headline":"Livraison alimentaire bio et locale à domicile  en circuit court, en Lorraine au sud de la Meurthe-et Moselle dans le Saintois","state":"successful","goal":"3950.0","funded":2830.0},{"id":19895,"permalink":"epicerie-chez-poulet","name":"ÉPICERIE CHEZ POULET","latitude":49.3832,"longitude":0.260514,"type_group":"reward","headline":"Épicerie sans emballage jetable à Honfleur.","state":"successful","goal":"2200.0","funded":1670.0},{"id":19758,"permalink":"le-projet-phoenix-un-spectacle-a-lhumour-grincant","name":"LE PROJET PHOENIX, UN SPECTACLE A L'HUMOUR GRINÇANT !","latitude":47.1993543,"longitude":-1.5892196,"type_group":"reward","headline":"Nous jouons 3 mois à Paris : soutenez Le Rire du Miroir, une compagnie de théâtre nantaise !","state":"successful","goal":"2000.0","funded":4755.0},{"id":20136,"permalink":"la-cabane-aux-idees","name":"LA CABANE AUX IDEES","latitude":47.3846,"longitude":0.688274,"type_group":"reward","headline":"Une cabane pour Lire au Jardin à Tours.","state":"successful","goal":"3800.0","funded":5860.0},{"id":29741,"permalink":"gaelle-boissonnard-edition-minuscule-carnets","name":"Édition minuscule","latitude":45.4133466,"longitude":4.336178,"type_group":"reward","headline":"Des carnets pour écrire, dessiner, inventer le monde","state":"successful","goal":"2800.0","funded":8393.0},{"id":20012,"permalink":"lalambiquee","name":"L'ALAMBIQUEE","latitude":43.7532,"longitude":3.36702,"type_group":"reward","headline":"Une cantine - et bien plus - dans un espace collectif au cœur de la Distillerie à Lodève (Hérault)\n\n","state":"successful","goal":"13560.0","funded":2015.0},{"id":28761,"permalink":"joueuse_daromes","name":"Sécher à tout bout d'champs !","latitude":45.5887056,"longitude":2.4875192,"type_group":"reward","headline":"Planter, cueillir, sécher, trier, goûter !","state":"successful","goal":"4000.0","funded":4810.0},{"id":19543,"permalink":"leco-pain-dabord","name":"L'ÉCO PAIN D'ABORD","latitude":48.1222,"longitude":7.14892,"type_group":"reward","headline":"Une boulangerie bio et solidaire.\n\n","state":"successful","goal":"7500.0","funded":3160.0},{"id":25224,"permalink":"labo-de-labbe","name":"Le Labo de l’Abbé,  pour une mode écologique et solidaire","latitude":48.8082617,"longitude":2.4424084,"type_group":"donation","headline":"Aidez la marque de vêtements chic et féminine, conçue par les couturièr.er.s d’Emmaüs La Friperie Solidaire, à se développer","state":"successful","goal":"3000.0","funded":2090.0},{"id":30397,"permalink":"florain-numerique","name":"Faisons éclore le Florain numérique !","latitude":48.6937223,"longitude":6.1834097,"type_group":"reward","headline":"Votre Monnaie Locale grandit vite et bien ! Aidez-nous à financer le développement du Florain Numérique et d'un nouveau tirage de billets.","state":"successful","goal":"5500.0","funded":3872.12},{"id":30934,"permalink":"l-interstice","name":"L'Interstice Café-Librairie","latitude":47.2259232,"longitude":5.9585962,"type_group":"reward","headline":"Créons un lieu de rencontre entre le livre, les plaisirs gustatifs et les Bisontins","state":"successful","goal":"16000.0","funded":14800.0},{"id":20416,"permalink":"la-grenouille-a-grande-bouche","name":"LA GRENOUILLE A GRANDE BOUCHE","latitude":48.0864603,"longitude":-1.6989188,"type_group":"reward","headline":"Restaurant et Revue participatifs","state":"successful","goal":"5000.0","funded":9780.0},{"id":19592,"permalink":"lecole-dequitation-du-souffle","name":"L'ECOLE D’ÉQUITATION DU SOUFFLE","latitude":48.2901,"longitude":7.43046,"type_group":"reward","headline":"Développer une école d'équitation autour du handicap moteur.","state":"successful","goal":"3000.0","funded":6375.0},{"id":30401,"permalink":"floraluna","name":"Floraluna : l'Alambic Ecologique !","latitude":42.6246287,"longitude":2.4525808,"type_group":"reward","headline":"Installons ensemble un nouvel alambic pour continuer à distiller les plantes bio des Pyrénées !","state":"successful","goal":"26300.0","funded":21193.23},{"id":23170,"permalink":"guide-TGG","name":"Petit Guide pour Consommer Responsable à Lyon et ses environs","latitude":45.7539278,"longitude":4.8670415,"type_group":"reward","headline":"Participez à la création du premier guide de consommation responsable à Lyon et ses environs : astuces, conseils et bonnes adresses.","state":"successful","goal":"5000.0","funded":6750.0},{"id":24579,"permalink":"sauver-les-roulottes-de-labbaye","name":"Les Roulottes de l'abbaye : Calèches en détresse","latitude":46.359176,"longitude":-0.7461177,"type_group":"reward","headline":"Notre activité est en sursis suite à la crise sanitaire, nous avons besoin d'aide ! ...","state":"successful","goal":"5000.0","funded":2780.0},{"id":19732,"permalink":"agriculturellement","name":"AGRICULTURELLEMENT","latitude":47.3271,"longitude":4.79611,"type_group":"reward","headline":"Pour un café associatif à Mâlain comme lieu de convivialité, de créativité et de sensibilisation écologique en milieu rural.\n\n","state":"successful","goal":"6500.0","funded":7645.0},{"id":19596,"permalink":"le-cotyledon-cafe-culturel-associatif","name":"LE COTYLEDON - CAFE CULTUREL ASSOCIATIF","latitude":48.7683,"longitude":7.25809,"type_group":"reward","headline":"Ecologie, culture et lien social à Phalsbourg !","state":"successful","goal":"1700.0","funded":2480.0},{"id":19695,"permalink":"la-p-p-a-t-agence-de-precarite-positive-accessible-a-tous","name":"L'A.P.P.A.T. - AGENCE DE PRECARITE POSITIVE ACCESSIBLE A TOUS","latitude":49.2571,"longitude":4.04943,"type_group":"reward","headline":"Spectacle cyniquement burlesque (ou l'inverse) sur un discours ultra-libéral décomplexé.\n\n","state":"successful","goal":"3500.0","funded":3655.0},{"id":26796,"permalink":"revue90","name":"90° : La revue d’un nouveau récit, par Colibris !","latitude":48.8546679,"longitude":2.4006409,"type_group":"reward","headline":"80 pages pour penser et raconter le changement de cap, écologique et solidaire que nous vivons","state":"successful","goal":"5000.0","funded":24490.0},{"id":19924,"permalink":"tour-alternatiba","name":"TOUR ALTERNATIBA","latitude":48.8572,"longitude":2.34144,"type_group":"reward","headline":"La collecte est terminée, vous pouvez toujours soutenir le Tour Alternatiba !\n\n","state":"successful","goal":"60000.0","funded":67584.0},{"id":19609,"permalink":"les-balladins-en-bolivie","name":"LES BALLADINS EN BOLIVIE","latitude":49.4588,"longitude":2.07209,"type_group":"reward","headline":"Le cirque social comme outil d'éducation populaire : rencontres à Cochabamba !","state":"successful","goal":"1500.0","funded":2902.0},{"id":19705,"permalink":"le-rat-perche","name":"LE RAT PERCHE","latitude":50.2838,"longitude":2.74088,"type_group":"reward","headline":"Café culturel, citoyen et solidaire à Arras\n\n","state":"successful","goal":"7000.0","funded":10883.0},{"id":19962,"permalink":"seme-un-espace-de-vie-bio-en-gironde","name":"SEME, UN ESPACE DE VIE BIO EN GIRONDE","latitude":44.7666,"longitude":-1.13908,"type_group":"reward","headline":"Un magasin, un restaurant, des services et de la bio-nne humeur à Arès sur le Nord-Bassin !","state":"successful","goal":"2000.0","funded":5950.0},{"id":19819,"permalink":"pepigo-la-cuisine-partagee","name":"PEPIGO : LA CUISINE PARTAGÉE","latitude":47.2253,"longitude":-1.63664,"type_group":"reward","headline":"Faite vivre et grandir la cuisine partagée de Saint-herblain (Loire Atlantique).","state":"successful","goal":"1300.0","funded":1455.0},{"id":20159,"permalink":"des-fruits-au-jardin","name":"DES FRUITS AU JARDIN","latitude":47.6239,"longitude":5.79967,"type_group":"reward","headline":"Plantation de vignes et d'arbres fruitiers en agroforesterie à Theuley (Haute-Saône).","state":"successful","goal":"1200.0","funded":3440.0},{"id":28804,"permalink":"jeuchange","name":"Jeu Change, les jouets de seconde main engagés ! ","latitude":45.6744086,"longitude":5.916834722334778,"type_group":"reward","headline":"Soutenez Jeu Change, la plateforme web écologique et solidaire, qui propose aux particuliers des jeux et jouets de seconde main. Ils sont tous collectés et sélectionnés par les recycleries près de chez vous. ","state":"successful","goal":"7000.0","funded":7575.0},{"id":23735,"permalink":"dictionnaire-langue-des-signes-Guinee","name":"Un dictionnaire langue des signes pour les enfants sourds de Guinée","latitude":48.7294165,"longitude":6.1545597,"type_group":"reward","headline":"Permettre la création et la diffusion d'un dictionnaire de la langue des signes pour les sourds de Guinée en version papier et numérique. Les objectifs de ce dictionnaire : Former des enseignants à la communication avec les élèves sourds. Diffuser la langue des signes dans la société civile (familles en particulier) pour une meilleure intégration des sourds dès leur plus jeune âge.","state":"successful","goal":"6500.0","funded":881.0},{"id":22786,"permalink":"en-route-pour-le-bonheur-des-momes","name":"En route pour le \"Bonheur des mômes\" !","latitude":48.683526,"longitude":6.1853885,"type_group":"donation","headline":"Proposer à quelques familles en grande difficulté sociale et financière de participer au plus magique des événements jeune public :  le festival « Au Bonheur des mômes ».","state":"successful","goal":"1200.0","funded":1215.0},{"id":19900,"permalink":"la-releve-et-la-peste","name":"LA RELÈVE ET LA PESTE","latitude":44.8233,"longitude":-0.560231,"type_group":"reward","headline":"Média 100 % libre et indépendant.","state":"successful","goal":"10000.0","funded":10866.0},{"id":20414,"permalink":"le-jardin-bleu","name":"LE JARDIN BLEU","latitude":44.7953,"longitude":5.35001,"type_group":"reward","headline":"Jardiner pour et avec les abeilles à Die (Drôme).","state":"successful","goal":"1400.0","funded":2725.0},{"id":27566,"permalink":"mad-maze","name":"MAD MAZE","latitude":44.4403559,"longitude":4.5784359,"type_group":"reward","headline":" PARC DE LOISIRS ET LABYRINTHE EXPERIMENTAL DANS LE SUD ARDECHE","state":"successful","goal":"10000.0","funded":17415.0},{"id":29256,"permalink":"oasis-re-source-harmoniedescoeursjoyeux","name":"Oasis Re-Source * Harmonie des Coeurs Joyeux *","latitude":44.9854888,"longitude":4.5796372,"type_group":"donation","headline":"Aidez notre association à devenir propriétaire d'un lieu ardéchois ayant pour vocation de devenir un centre culturel autogéré, laboratoire d’alternatives, Tiers lieux d'écologie holistique","state":"successful","goal":"30000.0","funded":11866.0},{"id":28727,"permalink":"concrete","name":"Concrete Raw : commerce éco-responsable à Bordeaux","latitude":44.8441479,"longitude":-0.5816332,"type_group":"reward","headline":"One stop shop de biens durables à Bordeaux","state":"successful","goal":"6000.0","funded":6305.0},{"id":26953,"permalink":"envrac-epicerie","name":"En Vrac - Épicerie","latitude":46.9794868,"longitude":-0.020084,"type_group":"reward","headline":"Un épicerie ambulante sur le Territoire Loudunais....","state":"successful","goal":"2500.0","funded":2550.0},{"id":26307,"permalink":"lebisecologique","name":"Le BIS - Sac écologique recyclable en papier journal ","latitude":43.70632055,"longitude":4.872036513729583,"type_group":"reward","headline":"Participez au développement de la machine qui va créer les sacs et aidez nous à valoriser vos papiers pour en faire de beaux objets.","state":"successful","goal":"5000.0","funded":5330.0},{"id":26148,"permalink":"microbrasserie-de-montchat","name":"Microbrasserie de Montchat","latitude":45.7455754,"longitude":4.8832991,"type_group":"reward","headline":"Bière de Montchat : Soutenez une brasserie locale et écologique","state":"successful","goal":"12000.0","funded":13290.0},{"id":25890,"permalink":"lafermedesdomoiselles","name":"La Ferme des Domoiselles a besoin d'un coup de pouce !","latitude":49.6899405,"longitude":4.8029888,"type_group":"reward","headline":"Construire un système éco-responsable de filtration et récupération de l'eau qui permettra une irrigation naturelle des pâtures","state":"successful","goal":"6000.0","funded":5876.0},{"id":20030,"permalink":"festival-hit-the-road-2018","name":"FESTIVAL HIT THE ROAD 2018","latitude":48.8562,"longitude":2.30273,"type_group":"reward","headline":"Le festival qui allie voyage en stop, musique, écologie et convivialité, du 19 au 21 mai 2018 !\n\n","state":"successful","goal":"1500.0","funded":1530.0},{"id":31437,"permalink":"convivencia2023","name":"Soutenez la Semaine de Convivència à Arles","latitude":43.677573,"longitude":4.6256209,"type_group":"donation","headline":"festival gratuit : musique du monde et carrefour éco-citoyen, 21ème édition en juillet 2023.","state":"successful","goal":"5000.0","funded":5790.0},