{
"type": "FeatureCollection",
"crs": { "type": "name", "properties": { "name": "urn:ogc:def:crs:OGC:1.3:CRS84" } },
"features": [
{ "type": "Feature", "properties": { "Name": "École de la vie Neo-bienêtre", "description": "http:\/\/www.neobienetre.fr\/neo-bienetre-ecole-de-la-vie\/", "timestamp": null, "begin": null, "end": null, "altitudeMode": null, "tessellate": -1, "extrude": -1, "visibility": -1, "drawOrder": null, "icon": null }, "geometry": { "type": "Point", "coordinates": [ 3.8764572, 43.6104773, 0.0 ] } },
{ "type": "Feature", "properties": { "Name": "Ecole Montessori Internationale\n\"Les rayons de soleil\"", "description": "Ecole Montessori Internationale<br>\"Les rayons de soleil\"<br>31 rue de Paris<br>78600 Maisons-Laffitte", "timestamp": null, "begin": null, "end": null, "altitudeMode": null, "tessellate": -1, "extrude": -1, "visibility": -1, "drawOrder": null, "icon": null }, "geometry": { "type": "Point", "coordinates": [ 2.1521187, 48.9474208, 0.0 ] } },
{ "type": "Feature", "properties": { "Name": "Puck et Ribambelle", "description": "420 avenue des compagnons, 34170 Castelnau-le-Lez", "timestamp": null, "begin": null, "end": null, "altitudeMode": null, "tessellate": -1, "extrude": -1, "visibility": -1, "drawOrder": null, "icon": null }, "geometry": { "type": "Point", "coordinates": [ 3.915081, 43.6456407, 0.0 ] } },
{ "type": "Feature", "properties": { "Name": "Jardin d'Enfants Steiner Waldorf", "description": "430 avenue Château d'O 34090 Montpellier", "timestamp": null, "begin": null, "end": null, "altitudeMode": null, "tessellate": -1, "extrude": -1, "visibility": -1, "drawOrder": null, "icon": null }, "geometry": { "type": "Point", "coordinates": [ 3.841095, 43.6268809, 0.0 ] } },
{ "type": "Feature", "properties": { "Name": "Ecole Calandreta de Gardons", "description": "16 rue de l'enclos Roux 30100 Alès", "timestamp": null, "begin": null, "end": null, "altitudeMode": null, "tessellate": -1, "extrude": -1, "visibility": -1, "drawOrder": null, "icon": null }, "geometry": { "type": "Point", "coordinates": [ 4.0685463, 44.1260423, 0.0 ] } },
{ "type": "Feature", "properties": { "Name": "Scholae", "description": null, "timestamp": null, "begin": null, "end": null, "altitudeMode": null, "tessellate": -1, "extrude": -1, "visibility": -1, "drawOrder": null, "icon": null }, "geometry": { "type": "Point", "coordinates": [ 3.849898, 43.975283, 0.0 ] } },
{ "type": "Feature", "properties": { "Name": "La Maison des Enfants en Roussillon", "description": null, "timestamp": null, "begin": null, "end": null, "altitudeMode": null, "tessellate": -1, "extrude": -1, "visibility": -1, "drawOrder": null, "icon": null }, "geometry": { "type": "Point", "coordinates": [ 2.905253499999958, 42.6891036, 0.0 ] } },
{ "type": "Feature", "properties": { "Name": "Association Demain l'école", "description": null, "timestamp": null, "begin": null, "end": null, "altitudeMode": null, "tessellate": -1, "extrude": -1, "visibility": -1, "drawOrder": null, "icon": null }, "geometry": { "type": "Point", "coordinates": [ 2.36277240000004, 48.7119507, 0.0 ] } },
{ "type": "Feature", "properties": { "Name": "L’Association Montessori de France ", "description": null, "timestamp": null, "begin": null, "end": null, "altitudeMode": null, "tessellate": -1, "extrude": -1, "visibility": -1, "drawOrder": null, "icon": null }, "geometry": { "type": "Point", "coordinates": [ 2.492726700000048, 48.841247499999987, 0.0 ] } },
{ "type": "Feature", "properties": { "Name": "Association Nationale pour le développement de l’Éducation Nouvelle", "description": null, "timestamp": null, "begin": null, "end": null, "altitudeMode": null, "tessellate": -1, "extrude": -1, "visibility": -1, "drawOrder": null, "icon": null }, "geometry": { "type": "Point", "coordinates": [ 1.458539, 43.5726721, 0.0 ] } },
{ "type": "Feature", "properties": { "Name": "La Fédération des écoles Steiner-Waldorf en France", "description": null, "timestamp": null, "begin": null, "end": null, "altitudeMode": null, "tessellate": -1, "extrude": -1, "visibility": -1, "drawOrder": null, "icon": null }, "geometry": { "type": "Point", "coordinates": [ 2.325906600000053, 48.8339656, 0.0 ] } },
{ "type": "Feature", "properties": { "Name": "I.C.E.M Pédagogie Freinet Institut Coopératif de l'Ecole Moderne", "description": null, "timestamp": null, "begin": null, "end": null, "altitudeMode": null, "tessellate": -1, "extrude": -1, "visibility": -1, "drawOrder": null, "icon": null }, "geometry": { "type": "Point", "coordinates": [ -1.52036, 47.21795, 0.0 ] } },
{ "type": "Feature", "properties": { "Name": "PREVENTION Specialisee 34", "description": null, "timestamp": null, "begin": null, "end": null, "altitudeMode": null, "tessellate": -1, "extrude": -1, "visibility": -1, "drawOrder": null, "icon": null }, "geometry": { "type": "Point", "coordinates": [ 3.8154, 43.6261, 0.0 ] } },
{ "type": "Feature", "properties": { "Name": "Association d’Education Populaire affiliée à Peuple & Culture", "description": null, "timestamp": null, "begin": null, "end": null, "altitudeMode": null, "tessellate": -1, "extrude": -1, "visibility": -1, "drawOrder": null, "icon": null }, "geometry": { "type": "Point", "coordinates": [ 3.815401, 43.626098, 0.0 ] } },
{ "type": "Feature", "properties": { "Name": "Réseau Ecole et Nature", "description": null, "timestamp": null, "begin": null, "end": null, "altitudeMode": null, "tessellate": -1, "extrude": -1, "visibility": -1, "drawOrder": null, "icon": null }, "geometry": { "type": "Point", "coordinates": [ 3.917824, 43.608749, 0.0 ] } },
{ "type": "Feature", "properties": { "Name": "Ecoles du monde - Acteurs en éducation (EMAE)", "description": null, "timestamp": null, "begin": null, "end": null, "altitudeMode": null, "tessellate": -1, "extrude": -1, "visibility": -1, "drawOrder": null, "icon": null }, "geometry": { "type": "Point", "coordinates": [ 3.875879400000031, 43.6120639, 0.0 ] } },
{ "type": "Feature", "properties": { "Name": "Education sans frontière", "description": null, "timestamp": null, "begin": null, "end": null, "altitudeMode": null, "tessellate": -1, "extrude": -1, "visibility": -1, "drawOrder": null, "icon": null }, "geometry": { "type": "Point", "coordinates": [ 4.2665313, 50.682109, 0.0 ] } },
{ "type": "Feature", "properties": { "Name": "L'école de tous les possibles", "description": null, "timestamp": null, "begin": null, "end": null, "altitudeMode": null, "tessellate": -1, "extrude": -1, "visibility": -1, "drawOrder": null, "icon": null }, "geometry": { "type": "Point", "coordinates": [ -1.6202778, 46.7877775, 0.0 ] } },
{ "type": "Feature", "properties": { "Name": "Maison des enfants", "description": null, "timestamp": null, "begin": null, "end": null, "altitudeMode": null, "tessellate": -1, "extrude": -1, "visibility": -1, "drawOrder": null, "icon": null }, "geometry": { "type": "Point", "coordinates": [ 2.449366, 48.834978, 0.0 ] } },
{ "type": "Feature", "properties": { "Name": "Caminando", "description": "Chateau St Ferreol - 26410 Menglon - Drôme ", "timestamp": null, "begin": null, "end": null, "altitudeMode": null, "tessellate": -1, "extrude": -1, "visibility": -1, "drawOrder": null, "icon": null }, "geometry": { "type": "Point", "coordinates": [ 5.4366875, 44.6786628, 0.0 ] } },
{ "type": "Feature", "properties": { "Name": "École alternative pluri-pédagogique", "description": "Ouverture septembre 2016 ", "timestamp": null, "begin": null, "end": null, "altitudeMode": null, "tessellate": -1, "extrude": -1, "visibility": -1, "drawOrder": null, "icon": null }, "geometry": { "type": "Point", "coordinates": [ 2.3764801, 51.0379399, 0.0 ] } },
{ "type": "Feature", "properties": { "Name": "École Nouvelle d’Antony", "description": null, "timestamp": null, "begin": null, "end": null, "altitudeMode": null, "tessellate": -1, "extrude": -1, "visibility": -1, "drawOrder": null, "icon": null }, "geometry": { "type": "Point", "coordinates": [ 2.3092226, 48.7703567, 0.0 ] } },
{ "type": "Feature", "properties": { "Name": "École Nouvelle de la Rize", "description": null, "timestamp": null, "begin": null, "end": null, "altitudeMode": null, "tessellate": -1, "extrude": -1, "visibility": -1, "drawOrder": null, "icon": null }, "geometry": { "type": "Point", "coordinates": [ 4.865459099999953, 45.7580213, 0.0 ] } },
{ "type": "Feature", "properties": { "Name": "1 Rue des Néfliers", "description": null, "timestamp": null, "begin": null, "end": null, "altitudeMode": null, "tessellate": -1, "extrude": -1, "visibility": -1, "drawOrder": null, "icon": null }, "geometry": { "type": "Point", "coordinates": [ 1.458539, 43.5726721, 0.0 ] } },
{ "type": "Feature", "properties": { "Name": "École Nouvelle Émilie Brandt", "description": null, "timestamp": null, "begin": null, "end": null, "altitudeMode": null, "tessellate": -1, "extrude": -1, "visibility": -1, "drawOrder": null, "icon": null }, "geometry": { "type": "Point", "coordinates": [ 2.284755099999984, 48.8969502, 0.0 ] } },
{ "type": "Feature", "properties": { "Name": "École Le Chapoly", "description": null, "timestamp": null, "begin": null, "end": null, "altitudeMode": null, "tessellate": -1, "extrude": -1, "visibility": -1, "drawOrder": null, "icon": null }, "geometry": { "type": "Point", "coordinates": [ 4.740473, 45.769385, 0.0 ] } },
{ "type": "Feature", "properties": { "Name": "École d’aujourd’hui – School for today", "description": null, "timestamp": null, "begin": null, "end": null, "altitudeMode": null, "tessellate": -1, "extrude": -1, "visibility": -1, "drawOrder": null, "icon": null }, "geometry": { "type": "Point", "coordinates": [ 2.328225299999986, 48.8403068, 0.0 ] } },
{ "type": "Feature", "properties": { "Name": "Coll’innov", "description": null, "timestamp": null, "begin": null, "end": null, "altitudeMode": null, "tessellate": -1, "extrude": -1, "visibility": -1, "drawOrder": null, "icon": null }, "geometry": { "type": "Point", "coordinates": [ 4.8185072, 45.7552234, 0.0 ] } },
{ "type": "Feature", "properties": { "Name": "IRIS", "description": null, "timestamp": null, "begin": null, "end": null, "altitudeMode": null, "tessellate": -1, "extrude": -1, "visibility": -1, "drawOrder": null, "icon": null }, "geometry": { "type": "Point", "coordinates": [ 2.283133099999986, 48.9064561, 0.0 ] } },
{ "type": "Feature", "properties": { "Name": "Ecole Maternelle Montessori Les Tournesols", "description": null, "timestamp": null, "begin": null, "end": null, "altitudeMode": null, "tessellate": -1, "extrude": -1, "visibility": -1, "drawOrder": null, "icon": null }, "geometry": { "type": "Point", "coordinates": [ 6.1145467, 46.3297825, 0.0 ] } },
{ "type": "Feature", "properties": { "Name": "École Montessori Bilingue du Valromey", "description": null, "timestamp": null, "begin": null, "end": null, "altitudeMode": null, "tessellate": -1, "extrude": -1, "visibility": -1, "drawOrder": null, "icon": null }, "geometry": { "type": "Point", "coordinates": [ 5.682416200000034, 45.9070189, 0.0 ] } },
{ "type": "Feature", "properties": { "Name": "Association Pétronille au Pays de Tronçais", "description": null, "timestamp": null, "begin": null, "end": null, "altitudeMode": null, "tessellate": -1, "extrude": -1, "visibility": -1, "drawOrder": null, "icon": null }, "geometry": { "type": "Point", "coordinates": [ 2.691971299999977, 46.6572685, 0.0 ] } },
{ "type": "Feature", "properties": { "Name": "5 Sens Montessori", "description": null, "timestamp": null, "begin": null, "end": null, "altitudeMode": null, "tessellate": -1, "extrude": -1, "visibility": -1, "drawOrder": null, "icon": null }, "geometry": { "type": "Point", "coordinates": [ 6.073107700000037, 44.5536591, 0.0 ] } },
{ "type": "Feature", "properties": { "Name": "Au Jardin Des Soleils", "description": null, "timestamp": null, "begin": null, "end": null, "altitudeMode": null, "tessellate": -1, "extrude": -1, "visibility": -1, "drawOrder": null, "icon": null }, "geometry": { "type": "Point", "coordinates": [ 6.9303208, 43.619066, 0.0 ] } },
{ "type": "Feature", "properties": { "Name": "Ecole Montessori les esprits libres", "description": null, "timestamp": null, "begin": null, "end": null, "altitudeMode": null, "tessellate": -1, "extrude": -1, "visibility": -1, "drawOrder": null, "icon": null }, "geometry": { "type": "Point", "coordinates": [ 6.914537500000051, 43.643497200000013, 0.0 ] } },
{ "type": "Feature", "properties": { "Name": "Ateliers Montessori", "description": null, "timestamp": null, "begin": null, "end": null, "altitudeMode": null, "tessellate": -1, "extrude": -1, "visibility": -1, "drawOrder": null, "icon": null }, "geometry": { "type": "Point", "coordinates": [ 6.919649100000015, 43.6576539, 0.0 ] } },
{ "type": "Feature", "properties": { "Name": "Ecole MONTESSORI d'Antibes, Terre Enfantine, pour les 3-11 ans (dans le 06)", "description": null, "timestamp": null, "begin": null, "end": null, "altitudeMode": null, "tessellate": -1, "extrude": -1, "visibility": -1, "drawOrder": null, "icon": null }, "geometry": { "type": "Point", "coordinates": [ 7.086406, 43.581252, 0.0 ] } },
{ "type": "Feature", "properties": { "Name": "Azur Montessori", "description": null, "timestamp": null, "begin": null, "end": null, "altitudeMode": null, "tessellate": -1, "extrude": -1, "visibility": -1, "drawOrder": null, "icon": null }, "geometry": { "type": "Point", "coordinates": [ 7.074891500000035, 43.6206874, 0.0 ] } },
{ "type": "Feature", "properties": { "Name": "ECOLE MONTESSORI BILINGUE LES COLIBRIS", "description": null, "timestamp": null, "begin": null, "end": null, "altitudeMode": null, "tessellate": -1, "extrude": -1, "visibility": -1, "drawOrder": null, "icon": null }, "geometry": { "type": "Point", "coordinates": [ 7.061018, 43.621497, 0.0 ] } },
{ "type": "Feature", "properties": { "Name": "Centre Montessori les Pouces Verts", "description": null, "timestamp": null, "begin": null, "end": null, "altitudeMode": null, "tessellate": -1, "extrude": -1, "visibility": -1, "drawOrder": null, "icon": null }, "geometry": { "type": "Point", "coordinates": [ 6.994357400000013, 43.622913200000013, 0.0 ] } },
{ "type": "Feature", "properties": { "Name": "L'école bilingue Montessori de Nice", "description": null, "timestamp": null, "begin": null, "end": null, "altitudeMode": null, "tessellate": -1, "extrude": -1, "visibility": -1, "drawOrder": null, "icon": null }, "geometry": { "type": "Point", "coordinates": [ 7.286318100000017, 43.7022922, 0.0 ] } },
{ "type": "Feature", "properties": { "Name": "Ecole Montessori de Cannes", "description": null, "timestamp": null, "begin": null, "end": null, "altitudeMode": null, "tessellate": -1, "extrude": -1, "visibility": -1, "drawOrder": null, "icon": null }, "geometry": { "type": "Point", "coordinates": [ 6.957129200000055, 43.5442725, 0.0 ] } },
{ "type": "Feature", "properties": { "Name": "Ecole La Fontaine", "description": null, "timestamp": null, "begin": null, "end": null, "altitudeMode": null, "tessellate": -1, "extrude": -1, "visibility": -1, "drawOrder": null, "icon": null }, "geometry": { "type": "Point", "coordinates": [ 7.143072, 43.660222, 0.0 ] } },
{ "type": "Feature", "properties": { "Name": "Hameau des Buis", "description": null, "timestamp": null, "begin": null, "end": null, "altitudeMode": null, "tessellate": -1, "extrude": -1, "visibility": -1, "drawOrder": null, "icon": null }, "geometry": { "type": "Point", "coordinates": [ 4.222323, 44.4078649, 0.0 ] } },
{ "type": "Feature", "properties": { "Name": "Ecole Es En Ciel", "description": null, "timestamp": null, "begin": null, "end": null, "altitudeMode": null, "tessellate": -1, "extrude": -1, "visibility": -1, "drawOrder": null, "icon": null }, "geometry": { "type": "Point", "coordinates": [ 5.400795900000048, 43.561707, 0.0 ] } },
{ "type": "Feature", "properties": { "Name": "L'autre Ecole - Ateliers Montessori", "description": "\"Logis Notre Dame<br>13120 Gardanne\"", "timestamp": null, "begin": null, "end": null, "altitudeMode": null, "tessellate": -1, "extrude": -1, "visibility": -1, "drawOrder": null, "icon": null }, "geometry": { "type": "Point", "coordinates": [ 5.484205, 43.45492, 0.0 ] } },
{ "type": "Feature", "properties": { "Name": "Association Aux Couleurs de Montessori", "description": "62 Avenue des platanes Montlegun<br>11000 Carcassonne", "timestamp": null, "begin": null, "end": null, "altitudeMode": null, "tessellate": -1, "extrude": -1, "visibility": -1, "drawOrder": null, "icon": null }, "geometry": { "type": "Point", "coordinates": [ 2.3946548, 43.2006008, 0.0 ] } },
{ "type": "Feature", "properties": { "Name": "Ecole Poussières d'Etoiles", "description": null, "timestamp": null, "begin": null, "end": null, "altitudeMode": null, "tessellate": -1, "extrude": -1, "visibility": -1, "drawOrder": null, "icon": null }, "geometry": { "type": "Point", "coordinates": [ 5.380339, 43.486018, 0.0 ] } },
{ "type": "Feature", "properties": { "Name": "Ecole Amadeus", "description": null, "timestamp": null, "begin": null, "end": null, "altitudeMode": null, "tessellate": -1, "extrude": -1, "visibility": -1, "drawOrder": null, "icon": null }, "geometry": { "type": "Point", "coordinates": [ 5.563361200000031, 43.3141038, 0.0 ] } },
{ "type": "Feature", "properties": { "Name": "Ecole montessori La Souris Verte", "description": null, "timestamp": null, "begin": null, "end": null, "altitudeMode": null, "tessellate": -1, "extrude": -1, "visibility": -1, "drawOrder": null, "icon": null }, "geometry": { "type": "Point", "coordinates": [ 5.219451400000025, 43.5515043, 0.0 ] } },
{ "type": "Feature", "properties": { "Name": "CLEF", "description": "CLEF de La Ciotat  https:\/\/sites.google.com\/site\/cleflaciotat\/", "timestamp": null, "begin": null, "end": null, "altitudeMode": null, "tessellate": -1, "extrude": -1, "visibility": -1, "drawOrder": null, "icon": null }, "geometry": { "type": "Point", "coordinates": [ 5.5977165, 43.175401, 0.0 ] } },
{ "type": "Feature", "properties": { "Name": "Ecole Montessori La terre des Sylvains", "description": null, "timestamp": null, "begin": null, "end": null, "altitudeMode": null, "tessellate": -1, "extrude": -1, "visibility": -1, "drawOrder": null, "icon": null }, "geometry": { "type": "Point", "coordinates": [ 5.345843599999967, 43.6639892, 0.0 ] } },
{ "type": "Feature", "properties": { "Name": "Ecole Montessori Rive Gauche", "description": null, "timestamp": null, "begin": null, "end": null, "altitudeMode": null, "tessellate": -1, "extrude": -1, "visibility": -1, "drawOrder": null, "icon": null }, "geometry": { "type": "Point", "coordinates": [ 2.322342599999956, 48.8517258, 0.0 ] } },
{ "type": "Feature", "properties": { "Name": "Ecole Montessori Caen", "description": null, "timestamp": null, "begin": null, "end": null, "altitudeMode": null, "tessellate": -1, "extrude": -1, "visibility": -1, "drawOrder": null, "icon": null }, "geometry": { "type": "Point", "coordinates": [ -0.348258200000032, 49.170922, 0.0 ] } },
{ "type": "Feature", "properties": { "Name": "L'île aux enfants, école Montessori maternelle et primaire", "description": null, "timestamp": null, "begin": null, "end": null, "altitudeMode": null, "tessellate": -1, "extrude": -1, "visibility": -1, "drawOrder": null, "icon": null }, "geometry": { "type": "Point", "coordinates": [ -0.5896573, 45.7973226, 0.0 ] } },
{ "type": "Feature", "properties": { "Name": "Le Village Montessori", "description": null, "timestamp": null, "begin": null, "end": null, "altitudeMode": null, "tessellate": -1, "extrude": -1, "visibility": -1, "drawOrder": null, "icon": null }, "geometry": { "type": "Point", "coordinates": [ -0.967908500000021, 45.614355499999988, 0.0 ] } },
{ "type": "Feature", "properties": { "Name": "Ecole Montessori du Morvan", "description": null, "timestamp": null, "begin": null, "end": null, "altitudeMode": null, "tessellate": -1, "extrude": -1, "visibility": -1, "drawOrder": null, "icon": null }, "geometry": { "type": "Point", "coordinates": [ 4.297604, 47.144395, 0.0 ] } },
{ "type": "Feature", "properties": { "Name": "Ecole Montessori de Bergerac", "description": null, "timestamp": null, "begin": null, "end": null, "altitudeMode": null, "tessellate": -1, "extrude": -1, "visibility": -1, "drawOrder": null, "icon": null }, "geometry": { "type": "Point", "coordinates": [ 0.536858400000028, 44.85099970000001, 0.0 ] } },
{ "type": "Feature", "properties": { "Name": "Marelle Et Compagnie", "description": null, "timestamp": null, "begin": null, "end": null, "altitudeMode": null, "tessellate": -1, "extrude": -1, "visibility": -1, "drawOrder": null, "icon": null }, "geometry": { "type": "Point", "coordinates": [ 1.059599899999967, 45.2706011, 0.0 ] } },
{ "type": "Feature", "properties": { "Name": "Ecole Montessori de Besançon", "description": null, "timestamp": null, "begin": null, "end": null, "altitudeMode": null, "tessellate": -1, "extrude": -1, "visibility": -1, "drawOrder": null, "icon": null }, "geometry": { "type": "Point", "coordinates": [ 6.027228700000023, 47.2334131, 0.0 ] } },
{ "type": "Feature", "properties": { "Name": "Ecole Montessori de Valence", "description": null, "timestamp": null, "begin": null, "end": null, "altitudeMode": null, "tessellate": -1, "extrude": -1, "visibility": -1, "drawOrder": null, "icon": null }, "geometry": { "type": "Point", "coordinates": [ 4.887141199999974, 44.9139048, 0.0 ] } },
{ "type": "Feature", "properties": { "Name": "Ecole Montessori", "description": null, "timestamp": null, "begin": null, "end": null, "altitudeMode": null, "tessellate": -1, "extrude": -1, "visibility": -1, "drawOrder": null, "icon": null }, "geometry": { "type": "Point", "coordinates": [ 4.878172, 44.9647587, 0.0 ] } },
{ "type": "Feature", "properties": { "Name": "Ecole La Ruche de Montessori", "description": null, "timestamp": null, "begin": null, "end": null, "altitudeMode": null, "tessellate": -1, "extrude": -1, "visibility": -1, "drawOrder": null, "icon": null }, "geometry": { "type": "Point", "coordinates": [ 5.041855299999952, 45.0501331, 0.0 ] } },
{ "type": "Feature", "properties": { "Name": "Terres d'Enfance", "description": null, "timestamp": null, "begin": null, "end": null, "altitudeMode": null, "tessellate": -1, "extrude": -1, "visibility": -1, "drawOrder": null, "icon": null }, "geometry": { "type": "Point", "coordinates": [ 5.37622650000003, 44.7507975, 0.0 ] } },
{ "type": "Feature", "properties": { "Name": "L Ecole de la Vie", "description": null, "timestamp": null, "begin": null, "end": null, "altitudeMode": null, "tessellate": -1, "extrude": -1, "visibility": -1, "drawOrder": null, "icon": null }, "geometry": { "type": "Point", "coordinates": [ 6.1235605, 45.9409102, 0.0 ] } },
{ "type": "Feature", "properties": { "Name": "L'école de la vie", "description": null, "timestamp": null, "begin": null, "end": null, "altitudeMode": null, "tessellate": -1, "extrude": -1, "visibility": -1, "drawOrder": null, "icon": null }, "geometry": { "type": "Point", "coordinates": [ 4.706519299999968, 44.3716794, 0.0 ] } },
{ "type": "Feature", "properties": { "Name": "Montessori Evreux", "description": null, "timestamp": null, "begin": null, "end": null, "altitudeMode": null, "tessellate": -1, "extrude": -1, "visibility": -1, "drawOrder": null, "icon": null }, "geometry": { "type": "Point", "coordinates": [ 1.146417, 49.0249505, 0.0 ] } },
{ "type": "Feature", "properties": { "Name": "Ecole Montessori Colors", "description": null, "timestamp": null, "begin": null, "end": null, "altitudeMode": null, "tessellate": -1, "extrude": -1, "visibility": -1, "drawOrder": null, "icon": null }, "geometry": { "type": "Point", "coordinates": [ 1.395934399999987, 43.606454899999989, 0.0 ] } },
{ "type": "Feature", "properties": { "Name": "Le coin Montessori", "description": null, "timestamp": null, "begin": null, "end": null, "altitudeMode": null, "tessellate": -1, "extrude": -1, "visibility": -1, "drawOrder": null, "icon": null }, "geometry": { "type": "Point", "coordinates": [ 1.495701700000041, 43.5282503, 0.0 ] } },
{ "type": "Feature", "properties": { "Name": "Ecole Montessori Internationale", "description": null, "timestamp": null, "begin": null, "end": null, "altitudeMode": null, "tessellate": -1, "extrude": -1, "visibility": -1, "drawOrder": null, "icon": null }, "geometry": { "type": "Point", "coordinates": [ 1.303757, 43.748195, 0.0 ] } },
{ "type": "Feature", "properties": { "Name": "Ecole Montessori Bilingue la Tour Rose", "description": null, "timestamp": null, "begin": null, "end": null, "altitudeMode": null, "tessellate": -1, "extrude": -1, "visibility": -1, "drawOrder": null, "icon": null }, "geometry": { "type": "Point", "coordinates": [ 1.5064949, 43.5569672, 0.0 ] } },
{ "type": "Feature", "properties": { "Name": "Ecole Montessori l'Envol des Papillons", "description": null, "timestamp": null, "begin": null, "end": null, "altitudeMode": null, "tessellate": -1, "extrude": -1, "visibility": -1, "drawOrder": null, "icon": null }, "geometry": { "type": "Point", "coordinates": [ -0.574187400000028, 44.8547194, 0.0 ] } },
{ "type": "Feature", "properties": { "Name": "Montessori International Bordeaux", "description": null, "timestamp": null, "begin": null, "end": null, "altitudeMode": null, "tessellate": -1, "extrude": -1, "visibility": -1, "drawOrder": null, "icon": null }, "geometry": { "type": "Point", "coordinates": [ -0.637658800000054, 44.7750603, 0.0 ] } },
{ "type": "Feature", "properties": { "Name": "Epm Bordeaux Wilson", "description": null, "timestamp": null, "begin": null, "end": null, "altitudeMode": null, "tessellate": -1, "extrude": -1, "visibility": -1, "drawOrder": null, "icon": null }, "geometry": { "type": "Point", "coordinates": [ -0.603365100000019, 44.842374199999988, 0.0 ] } },
{ "type": "Feature", "properties": { "Name": "le Jardin des Enfants", "description": null, "timestamp": null, "begin": null, "end": null, "altitudeMode": null, "tessellate": -1, "extrude": -1, "visibility": -1, "drawOrder": null, "icon": null }, "geometry": { "type": "Point", "coordinates": [ -0.517046299999947, 44.8033663, 0.0 ] } },
{ "type": "Feature", "properties": { "Name": "Jardins d'enfants - Ecol'o'Bambins", "description": null, "timestamp": null, "begin": null, "end": null, "altitudeMode": null, "tessellate": -1, "extrude": -1, "visibility": -1, "drawOrder": null, "icon": null }, "geometry": { "type": "Point", "coordinates": [ -0.925343600000019, 44.6145451, 0.0 ] } },
{ "type": "Feature", "properties": { "Name": "L’Ecole des Possibles", "description": null, "timestamp": null, "begin": null, "end": null, "altitudeMode": null, "tessellate": -1, "extrude": -1, "visibility": -1, "drawOrder": null, "icon": null }, "geometry": { "type": "Point", "coordinates": [ -1.070524100000057, 44.6172418, 0.0 ] } },
{ "type": "Feature", "properties": { "Name": "Ecole Privée Montessori", "description": null, "timestamp": null, "begin": null, "end": null, "altitudeMode": null, "tessellate": -1, "extrude": -1, "visibility": -1, "drawOrder": null, "icon": null }, "geometry": { "type": "Point", "coordinates": [ -1.716157, 48.1107677, 0.0 ] } },
{ "type": "Feature", "properties": { "Name": "Collège Montessori", "description": null, "timestamp": null, "begin": null, "end": null, "altitudeMode": null, "tessellate": -1, "extrude": -1, "visibility": -1, "drawOrder": null, "icon": null }, "geometry": { "type": "Point", "coordinates": [ -1.795266399999946, 48.0847096, 0.0 ] } },
{ "type": "Feature", "properties": { "Name": "Un Monde de Découverte", "description": null, "timestamp": null, "begin": null, "end": null, "altitudeMode": null, "tessellate": -1, "extrude": -1, "visibility": -1, "drawOrder": null, "icon": null }, "geometry": { "type": "Point", "coordinates": [ 5.737441699999977, 45.1759865, 0.0 ] } },
{ "type": "Feature", "properties": { "Name": "Aide-moi à Faire Seul", "description": null, "timestamp": null, "begin": null, "end": null, "altitudeMode": null, "tessellate": -1, "extrude": -1, "visibility": -1, "drawOrder": null, "icon": null }, "geometry": { "type": "Point", "coordinates": [ 5.706801300000052, 45.1743062, 0.0 ] } },
{ "type": "Feature", "properties": { "Name": "Organisation de Gestion de l'Ecole Montessori OGEM", "description": null, "timestamp": null, "begin": null, "end": null, "altitudeMode": null, "tessellate": -1, "extrude": -1, "visibility": -1, "drawOrder": null, "icon": null }, "geometry": { "type": "Point", "coordinates": [ 4.851768, 45.7669177, 0.0 ] } },
{ "type": "Feature", "properties": { "Name": "L’Ecole Montessori du Pays Viennois", "description": null, "timestamp": null, "begin": null, "end": null, "altitudeMode": null, "tessellate": -1, "extrude": -1, "visibility": -1, "drawOrder": null, "icon": null }, "geometry": { "type": "Point", "coordinates": [ 4.915206799999964, 45.5144798, 0.0 ] } },
{ "type": "Feature", "properties": { "Name": "Ecole Grandir à son Rythme", "description": null, "timestamp": null, "begin": null, "end": null, "altitudeMode": null, "tessellate": -1, "extrude": -1, "visibility": -1, "drawOrder": null, "icon": null }, "geometry": { "type": "Point", "coordinates": [ 5.689031200000045, 45.1971499, 0.0 ] } },
{ "type": "Feature", "properties": { "Name": "Ecole Montessori Internationale Bilingue Grenoble-Gières", "description": null, "timestamp": null, "begin": null, "end": null, "altitudeMode": null, "tessellate": -1, "extrude": -1, "visibility": -1, "drawOrder": null, "icon": null }, "geometry": { "type": "Point", "coordinates": [ 5.77933, 45.189164, 0.0 ] } },
{ "type": "Feature", "properties": { "Name": "Menthe Abricot Cerise", "description": null, "timestamp": null, "begin": null, "end": null, "altitudeMode": null, "tessellate": -1, "extrude": -1, "visibility": -1, "drawOrder": null, "icon": null }, "geometry": { "type": "Point", "coordinates": [ 5.657283099999972, 44.8745905, 0.0 ] } },
{ "type": "Feature", "properties": { "Name": "Ecole Montessori Graine d'Étoile", "description": null, "timestamp": null, "begin": null, "end": null, "altitudeMode": null, "tessellate": -1, "extrude": -1, "visibility": -1, "drawOrder": null, "icon": null }, "geometry": { "type": "Point", "coordinates": [ 5.9384154, 45.6414112, 0.0 ] } },
{ "type": "Feature", "properties": { "Name": "Ecole Montessori Graine de Vie", "description": "\"8 Grand rue<br>39600 Mesnay\"", "timestamp": null, "begin": null, "end": null, "altitudeMode": null, "tessellate": -1, "extrude": -1, "visibility": -1, "drawOrder": null, "icon": null }, "geometry": { "type": "Point", "coordinates": [ 5.7943386, 46.9016207, 0.0 ] } },
{ "type": "Feature", "properties": { "Name": "Jardins Montessori l'école autrement", "description": null, "timestamp": null, "begin": null, "end": null, "altitudeMode": null, "tessellate": -1, "extrude": -1, "visibility": -1, "drawOrder": null, "icon": null }, "geometry": { "type": "Point", "coordinates": [ -1.3893835, 43.6705188, 0.0 ] } },
{ "type": "Feature", "properties": { "Name": "Ateliers Cap Montessori", "description": null, "timestamp": null, "begin": null, "end": null, "altitudeMode": null, "tessellate": -1, "extrude": -1, "visibility": -1, "drawOrder": null, "icon": null }, "geometry": { "type": "Point", "coordinates": [ -1.583910400000036, 47.2098309, 0.0 ] } },
{ "type": "Feature", "properties": { "Name": "Montessori Ancenis", "description": null, "timestamp": null, "begin": null, "end": null, "altitudeMode": null, "tessellate": -1, "extrude": -1, "visibility": -1, "drawOrder": null, "icon": null }, "geometry": { "type": "Point", "coordinates": [ -1.175792699999988, 47.374579399999988, 0.0 ] } },
{ "type": "Feature", "properties": { "Name": "Jean Paul II", "description": null, "timestamp": null, "begin": null, "end": null, "altitudeMode": null, "tessellate": -1, "extrude": -1, "visibility": -1, "drawOrder": null, "icon": null }, "geometry": { "type": "Point", "coordinates": [ -1.360201800000027, 47.093792699999987, 0.0 ] } },
{ "type": "Feature", "properties": { "Name": "Ecole de l'Arbre Enchanté", "description": null, "timestamp": null, "begin": null, "end": null, "altitudeMode": null, "tessellate": -1, "extrude": -1, "visibility": -1, "drawOrder": null, "icon": null }, "geometry": { "type": "Point", "coordinates": [ 2.128069099999948, 47.9246466, 0.0 ] } },
{ "type": "Feature", "properties": { "Name": "Ecole Montessori du Marmandais", "description": null, "timestamp": null, "begin": null, "end": null, "altitudeMode": null, "tessellate": -1, "extrude": -1, "visibility": -1, "drawOrder": null, "icon": null }, "geometry": { "type": "Point", "coordinates": [ 0.105068, 44.3786879, 0.0 ] } },
{ "type": "Feature", "properties": { "Name": "Institution Maria Montessori Angers", "description": null, "timestamp": null, "begin": null, "end": null, "altitudeMode": null, "tessellate": -1, "extrude": -1, "visibility": -1, "drawOrder": null, "icon": null }, "geometry": { "type": "Point", "coordinates": [ 0.281195799999978, 48.7545566, 0.0 ] } },
{ "type": "Feature", "properties": { "Name": "École Montessori d'Angers", "description": null, "timestamp": null, "begin": null, "end": null, "altitudeMode": null, "tessellate": -1, "extrude": -1, "visibility": -1, "drawOrder": null, "icon": null }, "geometry": { "type": "Point", "coordinates": [ -0.564947500000017, 47.438004600000014, 0.0 ] } },
{ "type": "Feature", "properties": { "Name": "Nido Montessori de St Lambert du Lattay", "description": null, "timestamp": null, "begin": null, "end": null, "altitudeMode": null, "tessellate": -1, "extrude": -1, "visibility": -1, "drawOrder": null, "icon": null }, "geometry": { "type": "Point", "coordinates": [ -0.633633799999984, 47.3011002, 0.0 ] } },
{ "type": "Feature", "properties": { "Name": "Montetibou", "description": null, "timestamp": null, "begin": null, "end": null, "altitudeMode": null, "tessellate": -1, "extrude": -1, "visibility": -1, "drawOrder": null, "icon": null }, "geometry": { "type": "Point", "coordinates": [ 6.162235799999962, 48.6853579, 0.0 ] } },
{ "type": "Feature", "properties": { "Name": "Mon Ty Sourire", "description": null, "timestamp": null, "begin": null, "end": null, "altitudeMode": null, "tessellate": -1, "extrude": -1, "visibility": -1, "drawOrder": null, "icon": null }, "geometry": { "type": "Point", "coordinates": [ -2.979663, 47.666944699999988, 0.0 ] } },
{ "type": "Feature", "properties": { "Name": "Ecole Montessori Les Mimosas", "description": null, "timestamp": null, "begin": null, "end": null, "altitudeMode": null, "tessellate": -1, "extrude": -1, "visibility": -1, "drawOrder": null, "icon": null }, "geometry": { "type": "Point", "coordinates": [ -2.894868699999961, 47.5880976, 0.0 ] } },
{ "type": "Feature", "properties": { "Name": "Ecole et Collège Jeanne d'Arc", "description": null, "timestamp": null, "begin": null, "end": null, "altitudeMode": null, "tessellate": -1, "extrude": -1, "visibility": -1, "drawOrder": null, "icon": null }, "geometry": { "type": "Point", "coordinates": [ 3.166902, 50.6783555, 0.0 ] } },
{ "type": "Feature", "properties": { "Name": "Ecole Montessori Saint Michel Archange", "description": null, "timestamp": null, "begin": null, "end": null, "altitudeMode": null, "tessellate": -1, "extrude": -1, "visibility": -1, "drawOrder": null, "icon": null }, "geometry": { "type": "Point", "coordinates": [ 2.798085899999933, 49.3953433, 0.0 ] } },
{ "type": "Feature", "properties": { "Name": "Ecole Pré-maternelle Le Geste Montessori", "description": null, "timestamp": null, "begin": null, "end": null, "altitudeMode": null, "tessellate": -1, "extrude": -1, "visibility": -1, "drawOrder": null, "icon": null }, "geometry": { "type": "Point", "coordinates": [ 2.826705299999958, 49.4337333, 0.0 ] } },
{ "type": "Feature", "properties": { "Name": "Bilingual Montessori School de l'Oise", "description": null, "timestamp": null, "begin": null, "end": null, "altitudeMode": null, "tessellate": -1, "extrude": -1, "visibility": -1, "drawOrder": null, "icon": null }, "geometry": { "type": "Point", "coordinates": [ 2.458298199999945, 49.1852939, 0.0 ] } },
{ "type": "Feature", "properties": { "Name": "Ecole Les Infatigables Explorateurs", "description": null, "timestamp": null, "begin": null, "end": null, "altitudeMode": null, "tessellate": -1, "extrude": -1, "visibility": -1, "drawOrder": null, "icon": null }, "geometry": { "type": "Point", "coordinates": [ 3.0823854, 45.7802742, 0.0 ] } },
{ "type": "Feature", "properties": { "Name": "L'école des roseaux", "description": null, "timestamp": null, "begin": null, "end": null, "altitudeMode": null, "tessellate": -1, "extrude": -1, "visibility": -1, "drawOrder": null, "icon": null }, "geometry": { "type": "Point", "coordinates": [ 3.160114099999987, 45.6686132, 0.0 ] } },
{ "type": "Feature", "properties": { "Name": "Les Enfants de la Ruche", "description": null, "timestamp": null, "begin": null, "end": null, "altitudeMode": null, "tessellate": -1, "extrude": -1, "visibility": -1, "drawOrder": null, "icon": null }, "geometry": { "type": "Point", "coordinates": [ -1.4962836, 43.495827, 0.0 ] } },
{ "type": "Feature", "properties": { "Name": "La Maison des Enfants en Roussillon", "description": null, "timestamp": null, "begin": null, "end": null, "altitudeMode": null, "tessellate": -1, "extrude": -1, "visibility": -1, "drawOrder": null, "icon": null }, "geometry": { "type": "Point", "coordinates": [ 2.878128899999979, 42.6409446, 0.0 ] } },
{ "type": "Feature", "properties": { "Name": "Ecole Privée Les Abeilles", "description": null, "timestamp": null, "begin": null, "end": null, "altitudeMode": null, "tessellate": -1, "extrude": -1, "visibility": -1, "drawOrder": null, "icon": null }, "geometry": { "type": "Point", "coordinates": [ 7.4062854, 48.46922150000001, 0.0 ] } },
{ "type": "Feature", "properties": { "Name": "Enfant art et pédagogie - Ecole pour la vie", "description": null, "timestamp": null, "begin": null, "end": null, "altitudeMode": null, "tessellate": -1, "extrude": -1, "visibility": -1, "drawOrder": null, "icon": null }, "geometry": { "type": "Point", "coordinates": [ 7.783466699999964, 48.7006382, 0.0 ] } },
{ "type": "Feature", "properties": { "Name": "Association 1,2,3 Montessori", "description": null, "timestamp": null, "begin": null, "end": null, "altitudeMode": null, "tessellate": -1, "extrude": -1, "visibility": -1, "drawOrder": null, "icon": null }, "geometry": { "type": "Point", "coordinates": [ 7.45482, 48.3624179, 0.0 ] } },
{ "type": "Feature", "properties": { "Name": "Ecole Montessori - Little maternelle", "description": null, "timestamp": null, "begin": null, "end": null, "altitudeMode": null, "tessellate": -1, "extrude": -1, "visibility": -1, "drawOrder": null, "icon": null }, "geometry": { "type": "Point", "coordinates": [ 4.817565300000069, 45.7436343, 0.0 ] } },
{ "type": "Feature", "properties": { "Name": "Établissement scolaire Chevreul Lestonnac École Montessori-Collège-Lycées", "description": null, "timestamp": null, "begin": null, "end": null, "altitudeMode": null, "tessellate": -1, "extrude": -1, "visibility": -1, "drawOrder": null, "icon": null }, "geometry": { "type": "Point", "coordinates": [ 4.859177, 45.7488535, 0.0 ] } },
{ "type": "Feature", "properties": { "Name": "Sci Saint Dominique Savio", "description": null, "timestamp": null, "begin": null, "end": null, "altitudeMode": null, "tessellate": -1, "extrude": -1, "visibility": -1, "drawOrder": null, "icon": null }, "geometry": { "type": "Point", "coordinates": [ 4.787534599999958, 45.7858013, 0.0 ] } },
{ "type": "Feature", "properties": { "Name": "École Montessori", "description": null, "timestamp": null, "begin": null, "end": null, "altitudeMode": null, "tessellate": -1, "extrude": -1, "visibility": -1, "drawOrder": null, "icon": null }, "geometry": { "type": "Point", "coordinates": [ 4.834402800000021, 45.85952420000001, 0.0 ] } },
{ "type": "Feature", "properties": { "Name": "Ecole Montessori en Beaujolais", "description": null, "timestamp": null, "begin": null, "end": null, "altitudeMode": null, "tessellate": -1, "extrude": -1, "visibility": -1, "drawOrder": null, "icon": null }, "geometry": { "type": "Point", "coordinates": [ 4.636529, 46.174915, 0.0 ] } },
{ "type": "Feature", "properties": { "Name": "La Maison des Enfants du Mans", "description": null, "timestamp": null, "begin": null, "end": null, "altitudeMode": null, "tessellate": -1, "extrude": -1, "visibility": -1, "drawOrder": null, "icon": null }, "geometry": { "type": "Point", "coordinates": [ 0.180155300000024, 48.00243, 0.0 ] } },
{ "type": "Feature", "properties": { "Name": "Ecole élémentaire Montessori 6-12 ans Le Mans", "description": null, "timestamp": null, "begin": null, "end": null, "altitudeMode": null, "tessellate": -1, "extrude": -1, "visibility": -1, "drawOrder": null, "icon": null }, "geometry": { "type": "Point", "coordinates": [ 0.1744605, 48.0036418, 0.0 ] } },
{ "type": "Feature", "properties": { "Name": "École Montessori Les Papillons Chambéry", "description": null, "timestamp": null, "begin": null, "end": null, "altitudeMode": null, "tessellate": -1, "extrude": -1, "visibility": -1, "drawOrder": null, "icon": null }, "geometry": { "type": "Point", "coordinates": [ 5.9272181, 45.571251, 0.0 ] } },
{ "type": "Feature", "properties": { "Name": "Mésanges Ecole Bilingue Montessori", "description": null, "timestamp": null, "begin": null, "end": null, "altitudeMode": null, "tessellate": -1, "extrude": -1, "visibility": -1, "drawOrder": null, "icon": null }, "geometry": { "type": "Point", "coordinates": [ 6.2531846, 46.2650349, 0.0 ] } },
{ "type": "Feature", "properties": { "Name": "Ecole Montessori Croque la Vie", "description": null, "timestamp": null, "begin": null, "end": null, "altitudeMode": null, "tessellate": -1, "extrude": -1, "visibility": -1, "drawOrder": null, "icon": null }, "geometry": { "type": "Point", "coordinates": [ 6.125160300000061, 46.1204665, 0.0 ] } },
{ "type": "Feature", "properties": { "Name": "Association Les P’tites Pousses", "description": "\"22 Presqu’île Les Cygnes <br>74200 Thonon-les-Bains\"", "timestamp": null, "begin": null, "end": null, "altitudeMode": null, "tessellate": -1, "extrude": -1, "visibility": -1, "drawOrder": null, "icon": null }, "geometry": { "type": "Point", "coordinates": [ 6.480217, 46.3739381, 0.0 ] } },
{ "type": "Feature", "properties": { "Name": "Ecole Montessori Fantine", "description": null, "timestamp": null, "begin": null, "end": null, "altitudeMode": null, "tessellate": -1, "extrude": -1, "visibility": -1, "drawOrder": null, "icon": null }, "geometry": { "type": "Point", "coordinates": [ 6.139503200000036, 45.863120599999988, 0.0 ] } },
{ "type": "Feature", "properties": { "Name": "Ecole Montessori du Pays Rochois", "description": null, "timestamp": null, "begin": null, "end": null, "altitudeMode": null, "tessellate": -1, "extrude": -1, "visibility": -1, "drawOrder": null, "icon": null }, "geometry": { "type": "Point", "coordinates": [ 6.284328500000015, 46.0548219, 0.0 ] } },
{ "type": "Feature", "properties": { "Name": "Ecole Montessori Internationale Jardin du Luxembourg", "description": null, "timestamp": null, "begin": null, "end": null, "altitudeMode": null, "tessellate": -1, "extrude": -1, "visibility": -1, "drawOrder": null, "icon": null }, "geometry": { "type": "Point", "coordinates": [ 2.341482700000029, 48.8425163, 0.0 ] } },
{ "type": "Feature", "properties": { "Name": "Ecole Montessori Kids", "description": null, "timestamp": null, "begin": null, "end": null, "altitudeMode": null, "tessellate": -1, "extrude": -1, "visibility": -1, "drawOrder": null, "icon": null }, "geometry": { "type": "Point", "coordinates": [ 2.353253099999961, 48.8392877, 0.0 ] } },
{ "type": "Feature", "properties": { "Name": "Bilingual Montessori School", "description": null, "timestamp": null, "begin": null, "end": null, "altitudeMode": null, "tessellate": -1, "extrude": -1, "visibility": -1, "drawOrder": null, "icon": null }, "geometry": { "type": "Point", "coordinates": [ 2.306673700000033, 48.862315, 0.0 ] } },
{ "type": "Feature", "properties": { "Name": "Institut Superieur Maria Montessori", "description": null, "timestamp": null, "begin": null, "end": null, "altitudeMode": null, "tessellate": -1, "extrude": -1, "visibility": -1, "drawOrder": null, "icon": null }, "geometry": { "type": "Point", "coordinates": [ 2.341777099999945, 48.8730342, 0.0 ] } },
{ "type": "Feature", "properties": { "Name": "Wi School International Montessori School", "description": null, "timestamp": null, "begin": null, "end": null, "altitudeMode": null, "tessellate": -1, "extrude": -1, "visibility": -1, "drawOrder": null, "icon": null }, "geometry": { "type": "Point", "coordinates": [ 2.347239, 48.8800757, 0.0 ] } },
{ "type": "Feature", "properties": { "Name": "Ecole Montessori Le Petit d'Homme", "description": null, "timestamp": null, "begin": null, "end": null, "altitudeMode": null, "tessellate": -1, "extrude": -1, "visibility": -1, "drawOrder": null, "icon": null }, "geometry": { "type": "Point", "coordinates": [ 2.3819234, 48.8642843, 0.0 ] } },
{ "type": "Feature", "properties": { "Name": "123 Mon école", "description": null, "timestamp": null, "begin": null, "end": null, "altitudeMode": null, "tessellate": -1, "extrude": -1, "visibility": -1, "drawOrder": null, "icon": null }, "geometry": { "type": "Point", "coordinates": [ 2.299450799999931, 48.847119, 0.0 ] } },
{ "type": "Feature", "properties": { "Name": "Montessori La Baleine", "description": null, "timestamp": null, "begin": null, "end": null, "altitudeMode": null, "tessellate": -1, "extrude": -1, "visibility": -1, "drawOrder": null, "icon": null }, "geometry": { "type": "Point", "coordinates": [ 2.349364799999989, 48.8271896, 0.0 ] } },
{ "type": "Feature", "properties": { "Name": "Ecole Horizon Montessori", "description": null, "timestamp": null, "begin": null, "end": null, "altitudeMode": null, "tessellate": -1, "extrude": -1, "visibility": -1, "drawOrder": null, "icon": null }, "geometry": { "type": "Point", "coordinates": [ 2.371058800000014, 48.8317086, 0.0 ] } },
{ "type": "Feature", "properties": { "Name": "Ateliers Koko Cabane", "description": null, "timestamp": null, "begin": null, "end": null, "altitudeMode": null, "tessellate": -1, "extrude": -1, "visibility": -1, "drawOrder": null, "icon": null }, "geometry": { "type": "Point", "coordinates": [ 2.38263870000003, 48.8594904, 0.0 ] } },
{ "type": "Feature", "properties": { "Name": "École Saint-Marcel", "description": null, "timestamp": null, "begin": null, "end": null, "altitudeMode": null, "tessellate": -1, "extrude": -1, "visibility": -1, "drawOrder": null, "icon": null }, "geometry": { "type": "Point", "coordinates": [ 2.3553882, 48.8366555, 0.0 ] } },
{ "type": "Feature", "properties": { "Name": "The Little English Montessori School", "description": null, "timestamp": null, "begin": null, "end": null, "altitudeMode": null, "tessellate": -1, "extrude": -1, "visibility": -1, "drawOrder": null, "icon": null }, "geometry": { "type": "Point", "coordinates": [ 2.30436080000004, 48.84662010000001, 0.0 ] } },
{ "type": "Feature", "properties": { "Name": "Jardin Enfants Montessori Auteuil", "description": null, "timestamp": null, "begin": null, "end": null, "altitudeMode": null, "tessellate": -1, "extrude": -1, "visibility": -1, "drawOrder": null, "icon": null }, "geometry": { "type": "Point", "coordinates": [ 2.260141299999987, 48.8445483, 0.0 ] } },
{ "type": "Feature", "properties": { "Name": "Montessori's Cool", "description": null, "timestamp": null, "begin": null, "end": null, "altitudeMode": null, "tessellate": -1, "extrude": -1, "visibility": -1, "drawOrder": null, "icon": null }, "geometry": { "type": "Point", "coordinates": [ 2.310021799999959, 48.8882309, 0.0 ] } },
{ "type": "Feature", "properties": { "Name": "Le Nid des Tout-Petits", "description": null, "timestamp": null, "begin": null, "end": null, "altitudeMode": null, "tessellate": -1, "extrude": -1, "visibility": -1, "drawOrder": null, "icon": null }, "geometry": { "type": "Point", "coordinates": [ 2.3975216, 48.8786996, 0.0 ] } },
{ "type": "Feature", "properties": { "Name": "L'école Montessori Rouen", "description": null, "timestamp": null, "begin": null, "end": null, "altitudeMode": null, "tessellate": -1, "extrude": -1, "visibility": -1, "drawOrder": null, "icon": null }, "geometry": { "type": "Point", "coordinates": [ 1.1034535, 49.449241699999988, 0.0 ] } },
{ "type": "Feature", "properties": { "Name": "Montessori Here and Now", "description": null, "timestamp": null, "begin": null, "end": null, "altitudeMode": null, "tessellate": -1, "extrude": -1, "visibility": -1, "drawOrder": null, "icon": null }, "geometry": { "type": "Point", "coordinates": [ 2.61589, 48.6977754, 0.0 ] } },
{ "type": "Feature", "properties": { "Name": "Le verger d'Elisa Ecole Montessori Bilingue", "description": null, "timestamp": null, "begin": null, "end": null, "altitudeMode": null, "tessellate": -1, "extrude": -1, "visibility": -1, "drawOrder": null, "icon": null }, "geometry": { "type": "Point", "coordinates": [ 2.911361700000043, 48.855903, 0.0 ] } },
{ "type": "Feature", "properties": { "Name": "Maison des Enfants de Marne la Vallée", "description": null, "timestamp": null, "begin": null, "end": null, "altitudeMode": null, "tessellate": -1, "extrude": -1, "visibility": -1, "drawOrder": null, "icon": null }, "geometry": { "type": "Point", "coordinates": [ 2.70127, 48.8381844, 0.0 ] } },
{ "type": "Feature", "properties": { "Name": "Ecole Bilingue Maria Montessori", "description": null, "timestamp": null, "begin": null, "end": null, "altitudeMode": null, "tessellate": -1, "extrude": -1, "visibility": -1, "drawOrder": null, "icon": null }, "geometry": { "type": "Point", "coordinates": [ 2.1511815, 48.8075993, 0.0 ] } },
{ "type": "Feature", "properties": { "Name": "EMI Grandir en Confiance", "description": null, "timestamp": null, "begin": null, "end": null, "altitudeMode": null, "tessellate": -1, "extrude": -1, "visibility": -1, "drawOrder": null, "icon": null }, "geometry": { "type": "Point", "coordinates": [ 2.0887865, 48.8950725, 0.0 ] } },
{ "type": "Feature", "properties": { "Name": "EL NIDO, Ecole Montessori Internationale", "description": null, "timestamp": null, "begin": null, "end": null, "altitudeMode": null, "tessellate": -1, "extrude": -1, "visibility": -1, "drawOrder": null, "icon": null }, "geometry": { "type": "Point", "coordinates": [ 2.038051200000041, 48.9192159, 0.0 ] } },
{ "type": "Feature", "properties": { "Name": "Centre de Rencontres Enfantines Montessori", "description": null, "timestamp": null, "begin": null, "end": null, "altitudeMode": null, "tessellate": -1, "extrude": -1, "visibility": -1, "drawOrder": null, "icon": null }, "geometry": { "type": "Point", "coordinates": [ 1.907803, 48.778438, 0.0 ] } },
{ "type": "Feature", "properties": { "Name": "La Petite Ecole Bilingue", "description": null, "timestamp": null, "begin": null, "end": null, "altitudeMode": null, "tessellate": -1, "extrude": -1, "visibility": -1, "drawOrder": null, "icon": null }, "geometry": { "type": "Point", "coordinates": [ 1.812476100000026, 48.9891136, 0.0 ] } },
{ "type": "Feature", "properties": { "Name": "Secrets d'Enfance", "description": null, "timestamp": null, "begin": null, "end": null, "altitudeMode": null, "tessellate": -1, "extrude": -1, "visibility": -1, "drawOrder": null, "icon": null }, "geometry": { "type": "Point", "coordinates": [ 1.987077, 48.972657, 0.0 ] } },
{ "type": "Feature", "properties": { "Name": "École Montessori Bilingue de Rueil-Malmaison", "description": null, "timestamp": null, "begin": null, "end": null, "altitudeMode": null, "tessellate": -1, "extrude": -1, "visibility": -1, "drawOrder": null, "icon": null }, "geometry": { "type": "Point", "coordinates": [ 2.174520499999971, 48.8750941, 0.0 ] } },
{ "type": "Feature", "properties": { "Name": "Ecole Bilingue Maria Montessori", "description": null, "timestamp": null, "begin": null, "end": null, "altitudeMode": null, "tessellate": -1, "extrude": -1, "visibility": -1, "drawOrder": null, "icon": null }, "geometry": { "type": "Point", "coordinates": [ 2.1511815, 48.8075993, 0.0 ] } },
{ "type": "Feature", "properties": { "Name": "Ecole Montessori Bilingue d'Andrésy", "description": null, "timestamp": null, "begin": null, "end": null, "altitudeMode": null, "tessellate": -1, "extrude": -1, "visibility": -1, "drawOrder": null, "icon": null }, "geometry": { "type": "Point", "coordinates": [ 2.063630200000034, 48.9875258, 0.0 ] } },
{ "type": "Feature", "properties": { "Name": "École Montessori Internationale « Les rayons de soleil »", "description": null, "timestamp": null, "begin": null, "end": null, "altitudeMode": null, "tessellate": -1, "extrude": -1, "visibility": -1, "drawOrder": null, "icon": null }, "geometry": { "type": "Point", "coordinates": [ 2.152494599999955, 48.9452005, 0.0 ] } },
{ "type": "Feature", "properties": { "Name": "Etre et Découvrir Maternelle et Primaire Montessori", "description": null, "timestamp": null, "begin": null, "end": null, "altitudeMode": null, "tessellate": -1, "extrude": -1, "visibility": -1, "drawOrder": null, "icon": null }, "geometry": { "type": "Point", "coordinates": [ 2.029370800000038, 48.8643394, 0.0 ] } },
{ "type": "Feature", "properties": { "Name": "Lycée International Montessori", "description": null, "timestamp": null, "begin": null, "end": null, "altitudeMode": null, "tessellate": -1, "extrude": -1, "visibility": -1, "drawOrder": null, "icon": null }, "geometry": { "type": "Point", "coordinates": [ 2.076222899999948, 48.8432331, 0.0 ] } },
{ "type": "Feature", "properties": { "Name": "Ecole Bilingue Montessori NLC78", "description": null, "timestamp": null, "begin": null, "end": null, "altitudeMode": null, "tessellate": -1, "extrude": -1, "visibility": -1, "drawOrder": null, "icon": null }, "geometry": { "type": "Point", "coordinates": [ 2.075179100000014, 48.8418556, 0.0 ] } },
{ "type": "Feature", "properties": { "Name": "Grandir avec Montessori", "description": null, "timestamp": null, "begin": null, "end": null, "altitudeMode": null, "tessellate": -1, "extrude": -1, "visibility": -1, "drawOrder": null, "icon": null }, "geometry": { "type": "Point", "coordinates": [ 2.1359132, 43.9137304, 0.0 ] } },
{ "type": "Feature", "properties": { "Name": "Le Jardin Montessori (Gaillac)", "description": null, "timestamp": null, "begin": null, "end": null, "altitudeMode": null, "tessellate": -1, "extrude": -1, "visibility": -1, "drawOrder": null, "icon": null }, "geometry": { "type": "Point", "coordinates": [ 1.894479899999965, 43.9054791, 0.0 ] } },
{ "type": "Feature", "properties": { "Name": "Ateliers Vive la vie", "description": "\"Route de Braguillou<br>82170 Fabas\"", "timestamp": null, "begin": null, "end": null, "altitudeMode": null, "tessellate": -1, "extrude": -1, "visibility": -1, "drawOrder": null, "icon": null }, "geometry": { "type": "Point", "coordinates": [ 1.1056709, 43.1077508, 0.0 ] } },
{ "type": "Feature", "properties": { "Name": "Association Epanoui'sens", "description": null, "timestamp": null, "begin": null, "end": null, "altitudeMode": null, "tessellate": -1, "extrude": -1, "visibility": -1, "drawOrder": null, "icon": null }, "geometry": { "type": "Point", "coordinates": [ 1.354941199999985, 43.9191248, 0.0 ] } },
{ "type": "Feature", "properties": { "Name": "La Loupiote", "description": null, "timestamp": null, "begin": null, "end": null, "altitudeMode": null, "tessellate": -1, "extrude": -1, "visibility": -1, "drawOrder": null, "icon": null }, "geometry": { "type": "Point", "coordinates": [ 6.599316400000022, 43.3289438, 0.0 ] } },
{ "type": "Feature", "properties": { "Name": "Ateliers L'escale Montessori", "description": null, "timestamp": null, "begin": null, "end": null, "altitudeMode": null, "tessellate": -1, "extrude": -1, "visibility": -1, "drawOrder": null, "icon": null }, "geometry": { "type": "Point", "coordinates": [ 6.122157, 43.1101977, 0.0 ] } },
{ "type": "Feature", "properties": { "Name": "18 Avenue Paul Bourget", "description": null, "timestamp": null, "begin": null, "end": null, "altitudeMode": null, "tessellate": -1, "extrude": -1, "visibility": -1, "drawOrder": null, "icon": null }, "geometry": { "type": "Point", "coordinates": [ 6.122157, 43.1101977, 0.0 ] } },
{ "type": "Feature", "properties": { "Name": "Association ASPIR", "description": "\"18 avenue Paul Bourget<br>83400 Hyères\"", "timestamp": null, "begin": null, "end": null, "altitudeMode": null, "tessellate": -1, "extrude": -1, "visibility": -1, "drawOrder": null, "icon": null }, "geometry": { "type": "Point", "coordinates": [ 6.122157, 43.1101977, 0.0 ] } },
{ "type": "Feature", "properties": { "Name": "Ateliers L'escale Montessori", "description": "\"18 Avenue Paul Bourget<br>83400 Hyères\"", "timestamp": null, "begin": null, "end": null, "altitudeMode": null, "tessellate": -1, "extrude": -1, "visibility": -1, "drawOrder": null, "icon": null }, "geometry": { "type": "Point", "coordinates": [ 6.1221891, 43.1101898, 0.0 ] } },
{ "type": "Feature", "properties": { "Name": "18 Avenue Paul Bourget", "description": null, "timestamp": null, "begin": null, "end": null, "altitudeMode": null, "tessellate": -1, "extrude": -1, "visibility": -1, "drawOrder": null, "icon": null }, "geometry": { "type": "Point", "coordinates": [ 6.122157, 43.1101977, 0.0 ] } },
{ "type": "Feature", "properties": { "Name": "La Maison Des Enfants", "description": null, "timestamp": null, "begin": null, "end": null, "altitudeMode": null, "tessellate": -1, "extrude": -1, "visibility": -1, "drawOrder": null, "icon": null }, "geometry": { "type": "Point", "coordinates": [ 4.775959, 43.9325205, 0.0 ] } },
{ "type": "Feature", "properties": { "Name": "École Montessori d’Avignon", "description": null, "timestamp": null, "begin": null, "end": null, "altitudeMode": null, "tessellate": -1, "extrude": -1, "visibility": -1, "drawOrder": null, "icon": null }, "geometry": { "type": "Point", "coordinates": [ 4.8460728, 43.9385876, 0.0 ] } },
{ "type": "Feature", "properties": { "Name": "Espace Montessori", "description": null, "timestamp": null, "begin": null, "end": null, "altitudeMode": null, "tessellate": -1, "extrude": -1, "visibility": -1, "drawOrder": null, "icon": null }, "geometry": { "type": "Point", "coordinates": [ 5.015039300000012, 44.2434224, 0.0 ] } },
{ "type": "Feature", "properties": { "Name": "Association Jardins d'Elios", "description": null, "timestamp": null, "begin": null, "end": null, "altitudeMode": null, "tessellate": -1, "extrude": -1, "visibility": -1, "drawOrder": null, "icon": null }, "geometry": { "type": "Point", "coordinates": [ 5.516884, 43.897877, 0.0 ] } },
{ "type": "Feature", "properties": { "Name": "Viens", "description": "\"Hameau des Grands Cléments<br>84750 Viens<br>\"", "timestamp": null, "begin": null, "end": null, "altitudeMode": null, "tessellate": -1, "extrude": -1, "visibility": -1, "drawOrder": null, "icon": null }, "geometry": { "type": "Point", "coordinates": [ 5.566641, 43.895473, 0.0 ] } },
{ "type": "Feature", "properties": { "Name": "Ecole Montessori de Salvert", "description": "\"Route de Chardonchamp<br>86440 Migne Auxances\"", "timestamp": null, "begin": null, "end": null, "altitudeMode": null, "tessellate": -1, "extrude": -1, "visibility": -1, "drawOrder": null, "icon": null }, "geometry": { "type": "Point", "coordinates": [ 0.3226224, 46.6247199, 0.0 ] } },
{ "type": "Feature", "properties": { "Name": "Des petits pas pour devenir grand", "description": "\"19 Rue du Mas de Chambon<br>87100 Limoges\"", "timestamp": null, "begin": null, "end": null, "altitudeMode": null, "tessellate": -1, "extrude": -1, "visibility": -1, "drawOrder": null, "icon": null }, "geometry": { "type": "Point", "coordinates": [ 1.2610245, 45.8345404, 0.0 ] } },
{ "type": "Feature", "properties": { "Name": "Ecole Montessori Les Souris Vertes", "description": null, "timestamp": null, "begin": null, "end": null, "altitudeMode": null, "tessellate": -1, "extrude": -1, "visibility": -1, "drawOrder": null, "icon": null }, "geometry": { "type": "Point", "coordinates": [ 6.896676899999989, 48.2737589, 0.0 ] } },
{ "type": "Feature", "properties": { "Name": "Sens Montessori", "description": null, "timestamp": null, "begin": null, "end": null, "altitudeMode": null, "tessellate": -1, "extrude": -1, "visibility": -1, "drawOrder": null, "icon": null }, "geometry": { "type": "Point", "coordinates": [ 3.28844, 48.1983827, 0.0 ] } },
{ "type": "Feature", "properties": { "Name": "Ecole Montessori Les IRIS", "description": null, "timestamp": null, "begin": null, "end": null, "altitudeMode": null, "tessellate": -1, "extrude": -1, "visibility": -1, "drawOrder": null, "icon": null }, "geometry": { "type": "Point", "coordinates": [ 6.858213699999965, 47.6324909, 0.0 ] } },
{ "type": "Feature", "properties": { "Name": "Ecole M Montessori Internationale 91", "description": null, "timestamp": null, "begin": null, "end": null, "altitudeMode": null, "tessellate": -1, "extrude": -1, "visibility": -1, "drawOrder": null, "icon": null }, "geometry": { "type": "Point", "coordinates": [ 2.449557300000038, 48.6352893, 0.0 ] } },
{ "type": "Feature", "properties": { "Name": "Le Jardin des Capucines", "description": null, "timestamp": null, "begin": null, "end": null, "altitudeMode": null, "tessellate": -1, "extrude": -1, "visibility": -1, "drawOrder": null, "icon": null }, "geometry": { "type": "Point", "coordinates": [ 2.11622460000001, 48.6897228, 0.0 ] } },
{ "type": "Feature", "properties": { "Name": "Ecole Primaire Privée les Ribambelles", "description": null, "timestamp": null, "begin": null, "end": null, "altitudeMode": null, "tessellate": -1, "extrude": -1, "visibility": -1, "drawOrder": null, "icon": null }, "geometry": { "type": "Point", "coordinates": [ 2.4434427, 48.7100491, 0.0 ] } },
{ "type": "Feature", "properties": { "Name": "Ecole de l'Arbre à Papillons \n", "description": null, "timestamp": null, "begin": null, "end": null, "altitudeMode": null, "tessellate": -1, "extrude": -1, "visibility": -1, "drawOrder": null, "icon": null }, "geometry": { "type": "Point", "coordinates": [ 2.298193699999956, 48.6498672, 0.0 ] } },
{ "type": "Feature", "properties": { "Name": "La Montessorine", "description": null, "timestamp": null, "begin": null, "end": null, "altitudeMode": null, "tessellate": -1, "extrude": -1, "visibility": -1, "drawOrder": null, "icon": null }, "geometry": { "type": "Point", "coordinates": [ 2.49288, 48.6887914, 0.0 ] } },
{ "type": "Feature", "properties": { "Name": "La Petite École Bilingue Montessori", "description": null, "timestamp": null, "begin": null, "end": null, "altitudeMode": null, "tessellate": -1, "extrude": -1, "visibility": -1, "drawOrder": null, "icon": null }, "geometry": { "type": "Point", "coordinates": [ 2.234868, 48.8471578, 0.0 ] } },
{ "type": "Feature", "properties": { "Name": "Ecole Montessori Bilingue", "description": null, "timestamp": null, "begin": null, "end": null, "altitudeMode": null, "tessellate": -1, "extrude": -1, "visibility": -1, "drawOrder": null, "icon": null }, "geometry": { "type": "Point", "coordinates": [ 2.205961800000068, 48.8435287, 0.0 ] } },
{ "type": "Feature", "properties": { "Name": "Ecole Nouvelle Emilie Brandt", "description": null, "timestamp": null, "begin": null, "end": null, "altitudeMode": null, "tessellate": -1, "extrude": -1, "visibility": -1, "drawOrder": null, "icon": null }, "geometry": { "type": "Point", "coordinates": [ 2.284775699999955, 48.89696090000001, 0.0 ] } },
{ "type": "Feature", "properties": { "Name": "Prunelle School Montessori Bilingual", "description": null, "timestamp": null, "begin": null, "end": null, "altitudeMode": null, "tessellate": -1, "extrude": -1, "visibility": -1, "drawOrder": null, "icon": null }, "geometry": { "type": "Point", "coordinates": [ 2.291124599999989, 48.896158699999987, 0.0 ] } },
{ "type": "Feature", "properties": { "Name": "Ecole Montessori 21", "description": null, "timestamp": null, "begin": null, "end": null, "altitudeMode": null, "tessellate": -1, "extrude": -1, "visibility": -1, "drawOrder": null, "icon": null }, "geometry": { "type": "Point", "coordinates": [ 2.217178, 48.8181841, 0.0 ] } },
{ "type": "Feature", "properties": { "Name": "Little Tots", "description": null, "timestamp": null, "begin": null, "end": null, "altitudeMode": null, "tessellate": -1, "extrude": -1, "visibility": -1, "drawOrder": null, "icon": null }, "geometry": { "type": "Point", "coordinates": [ 2.294029899999941, 48.800523899999988, 0.0 ] } },
{ "type": "Feature", "properties": { "Name": "Beautiful Minds", "description": null, "timestamp": null, "begin": null, "end": null, "altitudeMode": null, "tessellate": -1, "extrude": -1, "visibility": -1, "drawOrder": null, "icon": null }, "geometry": { "type": "Point", "coordinates": [ 2.25465650000001, 48.9025307, 0.0 ] } },
{ "type": "Feature", "properties": { "Name": "École Montessori Bilingue de Rueil-Malmaison", "description": null, "timestamp": null, "begin": null, "end": null, "altitudeMode": null, "tessellate": -1, "extrude": -1, "visibility": -1, "drawOrder": null, "icon": null }, "geometry": { "type": "Point", "coordinates": [ 2.174520499999971, 48.8750941, 0.0 ] } },
{ "type": "Feature", "properties": { "Name": "Turbul-Montessori", "description": null, "timestamp": null, "begin": null, "end": null, "altitudeMode": null, "tessellate": -1, "extrude": -1, "visibility": -1, "drawOrder": null, "icon": null }, "geometry": { "type": "Point", "coordinates": [ 2.4275927, 48.8550774, 0.0 ] } },
{ "type": "Feature", "properties": { "Name": "la Maison des Enfants Montessori", "description": null, "timestamp": null, "begin": null, "end": null, "altitudeMode": null, "tessellate": -1, "extrude": -1, "visibility": -1, "drawOrder": null, "icon": null }, "geometry": { "type": "Point", "coordinates": [ 2.4582216, 48.8748996, 0.0 ] } },
{ "type": "Feature", "properties": { "Name": "Association les Merveilles", "description": null, "timestamp": null, "begin": null, "end": null, "altitudeMode": null, "tessellate": -1, "extrude": -1, "visibility": -1, "drawOrder": null, "icon": null }, "geometry": { "type": "Point", "coordinates": [ 2.487542599999983, 48.8724704, 0.0 ] } },
{ "type": "Feature", "properties": { "Name": "Maison des Enfants Montessori Pré Saint Gervais", "description": null, "timestamp": null, "begin": null, "end": null, "altitudeMode": null, "tessellate": -1, "extrude": -1, "visibility": -1, "drawOrder": null, "icon": null }, "geometry": { "type": "Point", "coordinates": [ 2.409492900000032, 48.8820801, 0.0 ] } },
{ "type": "Feature", "properties": { "Name": "Moderato", "description": null, "timestamp": null, "begin": null, "end": null, "altitudeMode": null, "tessellate": -1, "extrude": -1, "visibility": -1, "drawOrder": null, "icon": null }, "geometry": { "type": "Point", "coordinates": [ 2.408772099999965, 48.891088, 0.0 ] } },
{ "type": "Feature", "properties": { "Name": "Arborescences", "description": null, "timestamp": null, "begin": null, "end": null, "altitudeMode": null, "tessellate": -1, "extrude": -1, "visibility": -1, "drawOrder": null, "icon": null }, "geometry": { "type": "Point", "coordinates": [ 2.486508599999979, 48.8326307, 0.0 ] } },
{ "type": "Feature", "properties": { "Name": "Les Coccinelles Montessori", "description": null, "timestamp": null, "begin": null, "end": null, "altitudeMode": null, "tessellate": -1, "extrude": -1, "visibility": -1, "drawOrder": null, "icon": null }, "geometry": { "type": "Point", "coordinates": [ 2.50990390000004, 48.8324747, 0.0 ] } },
{ "type": "Feature", "properties": { "Name": "Ecole Nouvelle Montessori du Val de Marne", "description": null, "timestamp": null, "begin": null, "end": null, "altitudeMode": null, "tessellate": -1, "extrude": -1, "visibility": -1, "drawOrder": null, "icon": null }, "geometry": { "type": "Point", "coordinates": [ 2.493096199999968, 48.785428, 0.0 ] } },
{ "type": "Feature", "properties": { "Name": "Ecole Bilingue Montessori du Val de Marne", "description": null, "timestamp": null, "begin": null, "end": null, "altitudeMode": null, "tessellate": -1, "extrude": -1, "visibility": -1, "drawOrder": null, "icon": null }, "geometry": { "type": "Point", "coordinates": [ 2.463074, 48.818119, 0.0 ] } },
{ "type": "Feature", "properties": { "Name": "Ecole Montessori Internationale Le Kaléidoscope", "description": null, "timestamp": null, "begin": null, "end": null, "altitudeMode": null, "tessellate": -1, "extrude": -1, "visibility": -1, "drawOrder": null, "icon": null }, "geometry": { "type": "Point", "coordinates": [ 2.409514, 48.756535, 0.0 ] } },
{ "type": "Feature", "properties": { "Name": "La Maison des Enfants", "description": null, "timestamp": null, "begin": null, "end": null, "altitudeMode": null, "tessellate": -1, "extrude": -1, "visibility": -1, "drawOrder": null, "icon": null }, "geometry": { "type": "Point", "coordinates": [ 2.233097600000065, 49.019675, 0.0 ] } },
{ "type": "Feature", "properties": { "Name": "Les petites souris de Montessori", "description": null, "timestamp": null, "begin": null, "end": null, "altitudeMode": null, "tessellate": -1, "extrude": -1, "visibility": -1, "drawOrder": null, "icon": null }, "geometry": { "type": "Point", "coordinates": [ 2.365182799999957, 49.1251139, 0.0 ] } },
{ "type": "Feature", "properties": { "Name": "Ecole Montessori Bilingue", "description": null, "timestamp": null, "begin": null, "end": null, "altitudeMode": null, "tessellate": -1, "extrude": -1, "visibility": -1, "drawOrder": null, "icon": null }, "geometry": { "type": "Point", "coordinates": [ 2.2938451, 49.1101162, 0.0 ] } },
{ "type": "Feature", "properties": { "Name": "Ecole Montessori Pluie d'Étoiles", "description": null, "timestamp": null, "begin": null, "end": null, "altitudeMode": null, "tessellate": -1, "extrude": -1, "visibility": -1, "drawOrder": null, "icon": null }, "geometry": { "type": "Point", "coordinates": [ -61.38519, 16.3145833, 0.0 ] } },
{ "type": "Feature", "properties": { "Name": "Ecole Montessori Un Mond'Avenir", "description": "\"1 Route de la chaine<br>97190 Le Gosier\"", "timestamp": null, "begin": null, "end": null, "altitudeMode": null, "tessellate": -1, "extrude": -1, "visibility": -1, "drawOrder": null, "icon": null }, "geometry": { "type": "Point", "coordinates": [ -61.4870453, 16.2174767, 0.0 ] } },
{ "type": "Feature", "properties": { "Name": "Ecole MonteSourire", "description": "\"59 Rue de la République<br>97438 Sainte Marie\"", "timestamp": null, "begin": null, "end": null, "altitudeMode": null, "tessellate": -1, "extrude": -1, "visibility": -1, "drawOrder": null, "icon": null }, "geometry": { "type": "Point", "coordinates": [ 55.525589, -20.891532, 0.0 ] } },
{ "type": "Feature", "properties": { "Name": "Les Boutons d'Or", "description": null, "timestamp": null, "begin": null, "end": null, "altitudeMode": null, "tessellate": -1, "extrude": -1, "visibility": -1, "drawOrder": null, "icon": null }, "geometry": { "type": "Point", "coordinates": [ 5.362792, 43.546016, 0.0 ] } },
{ "type": "Feature", "properties": { "Name": "Ecole Caminarem", "description": null, "timestamp": null, "begin": null, "end": null, "altitudeMode": null, "tessellate": -1, "extrude": -1, "visibility": -1, "drawOrder": null, "icon": null }, "geometry": { "type": "Point", "coordinates": [ 4.186618299999964, 44.085806, 0.0 ] } },
{ "type": "Feature", "properties": { "Name": "Ecole Rudolf Steiner", "description": null, "timestamp": null, "begin": null, "end": null, "altitudeMode": null, "tessellate": -1, "extrude": -1, "visibility": -1, "drawOrder": null, "icon": null }, "geometry": { "type": "Point", "coordinates": [ 4.874835, 43.9930914, 0.0 ] } },
{ "type": "Feature", "properties": { "Name": "Ass la Ferme Aux Quatre Saisons", "description": null, "timestamp": null, "begin": null, "end": null, "altitudeMode": null, "tessellate": -1, "extrude": -1, "visibility": -1, "drawOrder": null, "icon": null }, "geometry": { "type": "Point", "coordinates": [ 5.977511, 45.5398951, 0.0 ] } },
{ "type": "Feature", "properties": { "Name": "Ecole Privée Perceval", "description": null, "timestamp": null, "begin": null, "end": null, "altitudeMode": null, "tessellate": -1, "extrude": -1, "visibility": -1, "drawOrder": null, "icon": null }, "geometry": { "type": "Point", "coordinates": [ 2.158654100000035, 48.8871, 0.0 ] } },
{ "type": "Feature", "properties": { "Name": "Jardin d'Enfants Aubépine", "description": null, "timestamp": null, "begin": null, "end": null, "altitudeMode": null, "tessellate": -1, "extrude": -1, "visibility": -1, "drawOrder": null, "icon": null }, "geometry": { "type": "Point", "coordinates": [ 7.284332, 47.7621595, 0.0 ] } },
{ "type": "Feature", "properties": { "Name": "Pédagogie Steiner à Colmar", "description": null, "timestamp": null, "begin": null, "end": null, "altitudeMode": null, "tessellate": -1, "extrude": -1, "visibility": -1, "drawOrder": null, "icon": null }, "geometry": { "type": "Point", "coordinates": [ 7.318715399999974, 48.085973, 0.0 ] } },
{ "type": "Feature", "properties": { "Name": "Ecole Rudolf Steiner\/ Association Raphaël", "description": null, "timestamp": null, "begin": null, "end": null, "altitudeMode": null, "tessellate": -1, "extrude": -1, "visibility": -1, "drawOrder": null, "icon": null }, "geometry": { "type": "Point", "coordinates": [ 4.798127499999964, 45.707550700000013, 0.0 ] } },
{ "type": "Feature", "properties": { "Name": "Sur les Ailes des Lutins", "description": null, "timestamp": null, "begin": null, "end": null, "altitudeMode": null, "tessellate": -1, "extrude": -1, "visibility": -1, "drawOrder": null, "icon": null }, "geometry": { "type": "Point", "coordinates": [ 3.8400279, 43.6262665, 0.0 ] } },
{ "type": "Feature", "properties": { "Name": "Ecole de La Mhotte à Moulins", "description": null, "timestamp": null, "begin": null, "end": null, "altitudeMode": null, "tessellate": -1, "extrude": -1, "visibility": -1, "drawOrder": null, "icon": null }, "geometry": { "type": "Point", "coordinates": [ 3.115683, 46.572769, 0.0 ] } },
{ "type": "Feature", "properties": { "Name": "Ecole Rudolf Steiner de Haute Alsace", "description": null, "timestamp": null, "begin": null, "end": null, "altitudeMode": null, "tessellate": -1, "extrude": -1, "visibility": -1, "drawOrder": null, "icon": null }, "geometry": { "type": "Point", "coordinates": [ 7.284465, 47.7616634, 0.0 ] } },
{ "type": "Feature", "properties": { "Name": "Accueil Petite Enfance Le Beau Soleil", "description": null, "timestamp": null, "begin": null, "end": null, "altitudeMode": null, "tessellate": -1, "extrude": -1, "visibility": -1, "drawOrder": null, "icon": null }, "geometry": { "type": "Point", "coordinates": [ 7.429857200000015, 43.7515253, 0.0 ] } },
{ "type": "Feature", "properties": { "Name": "Jardin d'enfants \"Arc-en-Ciel\" de Pau", "description": null, "timestamp": null, "begin": null, "end": null, "altitudeMode": null, "tessellate": -1, "extrude": -1, "visibility": -1, "drawOrder": null, "icon": null }, "geometry": { "type": "Point", "coordinates": [ -0.38053160000004, 43.2854846, 0.0 ] } },
{ "type": "Feature", "properties": { "Name": "Le Jardin d'Eglantine", "description": null, "timestamp": null, "begin": null, "end": null, "altitudeMode": null, "tessellate": -1, "extrude": -1, "visibility": -1, "drawOrder": null, "icon": null }, "geometry": { "type": "Point", "coordinates": [ 2.321990899999946, 48.824166299999987, 0.0 ] } },
{ "type": "Feature", "properties": { "Name": "Ecole Les Capucines", "description": "\"Domaine du Plessis<br>35770 Vern\/Seiche\"", "timestamp": null, "begin": null, "end": null, "altitudeMode": null, "tessellate": -1, "extrude": -1, "visibility": -1, "drawOrder": null, "icon": null }, "geometry": { "type": "Point", "coordinates": [ -1.6005921, 48.0627871, 0.0 ] } },
{ "type": "Feature", "properties": { "Name": "Ecole Chant'Arize", "description": null, "timestamp": null, "begin": null, "end": null, "altitudeMode": null, "tessellate": -1, "extrude": -1, "visibility": -1, "drawOrder": null, "icon": null }, "geometry": { "type": "Point", "coordinates": [ 1.330134300000054, 43.115067200000013, 0.0 ] } },
{ "type": "Feature", "properties": { "Name": "École de Sisteron", "description": "\"Ecole Eveil et loisirs<br>Le Village<br>05300 Eourres\"", "timestamp": null, "begin": null, "end": null, "altitudeMode": null, "tessellate": -1, "extrude": -1, "visibility": -1, "drawOrder": null, "icon": null }, "geometry": { "type": "Point", "coordinates": [ 5.698618, 44.2133619, 0.0 ] } },
{ "type": "Feature", "properties": { "Name": "Ecole Michaël Pédagogie Rudolf Steiner", "description": null, "timestamp": null, "begin": null, "end": null, "altitudeMode": null, "tessellate": -1, "extrude": -1, "visibility": -1, "drawOrder": null, "icon": null }, "geometry": { "type": "Point", "coordinates": [ 7.7138493, 48.5784369, 0.0 ] } },
{ "type": "Feature", "properties": { "Name": "Ecole Les Tournesols", "description": null, "timestamp": null, "begin": null, "end": null, "altitudeMode": null, "tessellate": -1, "extrude": -1, "visibility": -1, "drawOrder": null, "icon": null }, "geometry": { "type": "Point", "coordinates": [ 1.424649100000011, 43.584332, 0.0 ] } },
{ "type": "Feature", "properties": { "Name": "Ecole Maternelle du Petit Pommier à Tours", "description": null, "timestamp": null, "begin": null, "end": null, "altitudeMode": null, "tessellate": -1, "extrude": -1, "visibility": -1, "drawOrder": null, "icon": null }, "geometry": { "type": "Point", "coordinates": [ 0.6266177, 47.4216162, 0.0 ] } },
{ "type": "Feature", "properties": { "Name": "Jardin d'Enfants Blanchefleur", "description": null, "timestamp": null, "begin": null, "end": null, "altitudeMode": null, "tessellate": -1, "extrude": -1, "visibility": -1, "drawOrder": null, "icon": null }, "geometry": { "type": "Point", "coordinates": [ 4.077529799999979, 48.28692820000002, 0.0 ] } },
{ "type": "Feature", "properties": { "Name": "Ecole Steiner-Waldorf", "description": null, "timestamp": null, "begin": null, "end": null, "altitudeMode": null, "tessellate": -1, "extrude": -1, "visibility": -1, "drawOrder": null, "icon": null }, "geometry": { "type": "Point", "coordinates": [ 2.2440474, 48.7392101, 0.0 ] } },
{ "type": "Feature", "properties": { "Name": "Ecole Rudolf Steiner", "description": null, "timestamp": null, "begin": null, "end": null, "altitudeMode": null, "tessellate": -1, "extrude": -1, "visibility": -1, "drawOrder": null, "icon": null }, "geometry": { "type": "Point", "coordinates": [ 6.836791400000038, 47.101876399999988, 0.0 ] } },
{ "type": "Feature", "properties": { "Name": "Schulverein Rudolf Steiner Schule Mayenfels", "description": null, "timestamp": null, "begin": null, "end": null, "altitudeMode": null, "tessellate": -1, "extrude": -1, "visibility": -1, "drawOrder": null, "icon": null }, "geometry": { "type": "Point", "coordinates": [ 7.683371399999943, 47.514374, 0.0 ] } },
{ "type": "Feature", "properties": { "Name": "Rudolf Steiner Schule Aargau", "description": null, "timestamp": null, "begin": null, "end": null, "altitudeMode": null, "tessellate": -1, "extrude": -1, "visibility": -1, "drawOrder": null, "icon": null }, "geometry": { "type": "Point", "coordinates": [ 8.143093799999974, 47.3842308, 0.0 ] } },
{ "type": "Feature", "properties": { "Name": "Rudolf Steiner Schule Birseck", "description": null, "timestamp": null, "begin": null, "end": null, "altitudeMode": null, "tessellate": -1, "extrude": -1, "visibility": -1, "drawOrder": null, "icon": null }, "geometry": { "type": "Point", "coordinates": [ 7.6047678, 47.4685255, 0.0 ] } },
{ "type": "Feature", "properties": { "Name": "Unterstützungsfonds der Rudolf Steiner Schule Basel", "description": null, "timestamp": null, "begin": null, "end": null, "altitudeMode": null, "tessellate": -1, "extrude": -1, "visibility": -1, "drawOrder": null, "icon": null }, "geometry": { "type": "Point", "coordinates": [ 7.600758499999984, 47.5329995, 0.0 ] } },
{ "type": "Feature", "properties": { "Name": "Ecole Elémentaire Freinet", "description": null, "timestamp": null, "begin": null, "end": null, "altitudeMode": null, "tessellate": -1, "extrude": -1, "visibility": -1, "drawOrder": null, "icon": null }, "geometry": { "type": "Point", "coordinates": [ 2.297168899999974, 51.0058332, 0.0 ] } },
{ "type": "Feature", "properties": { "Name": "Ecole Céléstin Freinet", "description": null, "timestamp": null, "begin": null, "end": null, "altitudeMode": null, "tessellate": -1, "extrude": -1, "visibility": -1, "drawOrder": null, "icon": null }, "geometry": { "type": "Point", "coordinates": [ -0.329230700000039, 49.2080499, 0.0 ] } },
{ "type": "Feature", "properties": { "Name": "École élémentaire publique Céléstin Freinet", "description": null, "timestamp": null, "begin": null, "end": null, "altitudeMode": null, "tessellate": -1, "extrude": -1, "visibility": -1, "drawOrder": null, "icon": null }, "geometry": { "type": "Point", "coordinates": [ -4.495325200000025, 48.4007243, 0.0 ] } },
{ "type": "Feature", "properties": { "Name": "Ecole Elementaire Célestin Freinet", "description": null, "timestamp": null, "begin": null, "end": null, "altitudeMode": null, "tessellate": -1, "extrude": -1, "visibility": -1, "drawOrder": null, "icon": null }, "geometry": { "type": "Point", "coordinates": [ 7.344915799999968, 47.7408827, 0.0 ] } },
{ "type": "Feature", "properties": { "Name": "Ecole Elémentaire Freinet", "description": null, "timestamp": null, "begin": null, "end": null, "altitudeMode": null, "tessellate": -1, "extrude": -1, "visibility": -1, "drawOrder": null, "icon": null }, "geometry": { "type": "Point", "coordinates": [ 7.339525500000037, 47.8073463, 0.0 ] } },
{ "type": "Feature", "properties": { "Name": "Ecole Freinet Bonneveine 2", "description": null, "timestamp": null, "begin": null, "end": null, "altitudeMode": null, "tessellate": -1, "extrude": -1, "visibility": -1, "drawOrder": null, "icon": null }, "geometry": { "type": "Point", "coordinates": [ 5.381047699999954, 43.251411, 0.0 ] } },
{ "type": "Feature", "properties": { "Name": "L'écol'o découvertes", "description": "Ecole Montessori", "timestamp": null, "begin": null, "end": null, "altitudeMode": null, "tessellate": -1, "extrude": -1, "visibility": -1, "drawOrder": null, "icon": null }, "geometry": { "type": "Point", "coordinates": [ 5.629668, 43.763992, 0.0 ] } },
{ "type": "Feature", "properties": { "Name": "Ecole Freinet", "description": null, "timestamp": null, "begin": null, "end": null, "altitudeMode": null, "tessellate": -1, "extrude": -1, "visibility": -1, "drawOrder": null, "icon": null }, "geometry": { "type": "Point", "coordinates": [ 7.134088799999972, 43.725987499999988, 0.0 ] } },
{ "type": "Feature", "properties": { "Name": "Jardin d'Enfants", "description": null, "timestamp": null, "begin": null, "end": null, "altitudeMode": null, "tessellate": -1, "extrude": -1, "visibility": -1, "drawOrder": null, "icon": null }, "geometry": { "type": "Point", "coordinates": [ 7.013859899999944, 43.6356012, 0.0 ] } },
{ "type": "Feature", "properties": { "Name": "Ecole Publique", "description": null, "timestamp": null, "begin": null, "end": null, "altitudeMode": null, "tessellate": -1, "extrude": -1, "visibility": -1, "drawOrder": null, "icon": null }, "geometry": { "type": "Point", "coordinates": [ 4.459379099999978, 44.8197943, 0.0 ] } },
{ "type": "Feature", "properties": { "Name": "Institut Privé LESCHI", "description": null, "timestamp": null, "begin": null, "end": null, "altitudeMode": null, "tessellate": -1, "extrude": -1, "visibility": -1, "drawOrder": null, "icon": null }, "geometry": { "type": "Point", "coordinates": [ 5.383052300000031, 43.2942545, 0.0 ] } },
{ "type": "Feature", "properties": { "Name": "Association pour la recherche d’un enseignement personnalisé Marseille - AREP", "description": null, "timestamp": null, "begin": null, "end": null, "altitudeMode": null, "tessellate": -1, "extrude": -1, "visibility": -1, "drawOrder": null, "icon": null }, "geometry": { "type": "Point", "coordinates": [ 5.390926, 43.2999699, 0.0 ] } },
{ "type": "Feature", "properties": { "Name": "École primaire publique La Treille", "description": null, "timestamp": null, "begin": null, "end": null, "altitudeMode": null, "tessellate": -1, "extrude": -1, "visibility": -1, "drawOrder": null, "icon": null }, "geometry": { "type": "Point", "coordinates": [ 5.5121282, 43.3133449, 0.0 ] } },
{ "type": "Feature", "properties": { "Name": "Ecole élémentaire Les Fabrettes", "description": null, "timestamp": null, "begin": null, "end": null, "altitudeMode": null, "tessellate": -1, "extrude": -1, "visibility": -1, "drawOrder": null, "icon": null }, "geometry": { "type": "Point", "coordinates": [ 5.356866, 43.376855, 0.0 ] } },
{ "type": "Feature", "properties": { "Name": "École maternelle publique La Mareschale", "description": null, "timestamp": null, "begin": null, "end": null, "altitudeMode": null, "tessellate": -1, "extrude": -1, "visibility": -1, "drawOrder": null, "icon": null }, "geometry": { "type": "Point", "coordinates": [ 5.432417499999929, 43.5255623, 0.0 ] } },
{ "type": "Feature", "properties": { "Name": "Ecole Elémentaire Mareschale", "description": null, "timestamp": null, "begin": null, "end": null, "altitudeMode": null, "tessellate": -1, "extrude": -1, "visibility": -1, "drawOrder": null, "icon": null }, "geometry": { "type": "Point", "coordinates": [ 5.433558, 43.5252037, 0.0 ] } },
{ "type": "Feature", "properties": { "Name": "Arep Les Chemins Institut Leschi", "description": null, "timestamp": null, "begin": null, "end": null, "altitudeMode": null, "tessellate": -1, "extrude": -1, "visibility": -1, "drawOrder": null, "icon": null }, "geometry": { "type": "Point", "coordinates": [ 5.443340900000067, 43.5158361, 0.0 ] } },
{ "type": "Feature", "properties": { "Name": "L’autre école - Le bel ormeau", "description": null, "timestamp": null, "begin": null, "end": null, "altitudeMode": null, "tessellate": -1, "extrude": -1, "visibility": -1, "drawOrder": null, "icon": null }, "geometry": { "type": "Point", "coordinates": [ 5.456751700000041, 43.5135328, 0.0 ] } },
{ "type": "Feature", "properties": { "Name": "Libre Ecole Maternelle et Primaire", "description": null, "timestamp": null, "begin": null, "end": null, "altitudeMode": null, "tessellate": -1, "extrude": -1, "visibility": -1, "drawOrder": null, "icon": null }, "geometry": { "type": "Point", "coordinates": [ 5.381983600000012, 43.4780914, 0.0 ] } },
{ "type": "Feature", "properties": { "Name": "Ecole de l'Olivier", "description": null, "timestamp": null, "begin": null, "end": null, "altitudeMode": null, "tessellate": -1, "extrude": -1, "visibility": -1, "drawOrder": null, "icon": null }, "geometry": { "type": "Point", "coordinates": [ 5.4806254, 43.593144, 0.0 ] } },
{ "type": "Feature", "properties": { "Name": "Collège Lycée Expérimental", "description": null, "timestamp": null, "begin": null, "end": null, "altitudeMode": null, "tessellate": -1, "extrude": -1, "visibility": -1, "drawOrder": null, "icon": null }, "geometry": { "type": "Point", "coordinates": [ -0.336639, 49.200172, 0.0 ] } },
{ "type": "Feature", "properties": { "Name": "Collège La Maronne", "description": null, "timestamp": null, "begin": null, "end": null, "altitudeMode": null, "tessellate": -1, "extrude": -1, "visibility": -1, "drawOrder": null, "icon": null }, "geometry": { "type": "Point", "coordinates": [ 2.42765, 45.117643, 0.0 ] } },
{ "type": "Feature", "properties": { "Name": "CEPMO", "description": null, "timestamp": null, "begin": null, "end": null, "altitudeMode": null, "tessellate": -1, "extrude": -1, "visibility": -1, "drawOrder": null, "icon": null }, "geometry": { "type": "Point", "coordinates": [ -1.2186241, 45.8168963, 0.0 ] } },
{ "type": "Feature", "properties": { "Name": "L Ecoline", "description": null, "timestamp": null, "begin": null, "end": null, "altitudeMode": null, "tessellate": -1, "extrude": -1, "visibility": -1, "drawOrder": null, "icon": null }, "geometry": { "type": "Point", "coordinates": [ 5.040454100000034, 47.3267107, 0.0 ] } },
{ "type": "Feature", "properties": { "Name": "La tour rose", "description": null, "timestamp": null, "begin": null, "end": null, "altitudeMode": null, "tessellate": -1, "extrude": -1, "visibility": -1, "drawOrder": null, "icon": null }, "geometry": { "type": "Point", "coordinates": [ 0.998182, 45.574412, 0.0 ] } },
{ "type": "Feature", "properties": { "Name": "Collège-lycée Notre-Dame de Lourdes", "description": null, "timestamp": null, "begin": null, "end": null, "altitudeMode": null, "tessellate": -1, "extrude": -1, "visibility": -1, "drawOrder": null, "icon": null }, "geometry": { "type": "Point", "coordinates": [ -4.323340799999983, 48.569731299999987, 0.0 ] } },
{ "type": "Feature", "properties": { "Name": "Ecole Maternelle et Primaire Diwan", "description": null, "timestamp": null, "begin": null, "end": null, "altitudeMode": null, "tessellate": -1, "extrude": -1, "visibility": -1, "drawOrder": null, "icon": null }, "geometry": { "type": "Point", "coordinates": [ -4.485795300000064, 48.244221499999988, 0.0 ] } },
{ "type": "Feature", "properties": { "Name": "Ecole Maternelle les Tournesols", "description": null, "timestamp": null, "begin": null, "end": null, "altitudeMode": null, "tessellate": -1, "extrude": -1, "visibility": -1, "drawOrder": null, "icon": null }, "geometry": { "type": "Point", "coordinates": [ 1.449982399999953, 43.6261453, 0.0 ] } },
{ "type": "Feature", "properties": { "Name": "Ecole Carou", "description": "Carran 32230 Montlezun", "timestamp": null, "begin": null, "end": null, "altitudeMode": null, "tessellate": -1, "extrude": -1, "visibility": -1, "drawOrder": null, "icon": null }, "geometry": { "type": "Point", "coordinates": [ 0.1747621, 43.4531545, 0.0 ] } },
{ "type": "Feature", "properties": { "Name": "Ecole Jacques Prévert - Collège \/ Lycée autogéré", "description": null, "timestamp": null, "begin": null, "end": null, "altitudeMode": null, "tessellate": -1, "extrude": -1, "visibility": -1, "drawOrder": null, "icon": null }, "geometry": { "type": "Point", "coordinates": [ -0.57321920000004, 44.856295, 0.0 ] } },
{ "type": "Feature", "properties": { "Name": "CLISTHENE", "description": null, "timestamp": null, "begin": null, "end": null, "altitudeMode": null, "tessellate": -1, "extrude": -1, "visibility": -1, "drawOrder": null, "icon": null }, "geometry": { "type": "Point", "coordinates": [ -0.585026200000016, 44.8580092, 0.0 ] } },
{ "type": "Feature", "properties": { "Name": "Association Graine d'Ecole", "description": null, "timestamp": null, "begin": null, "end": null, "altitudeMode": null, "tessellate": -1, "extrude": -1, "visibility": -1, "drawOrder": null, "icon": null }, "geometry": { "type": "Point", "coordinates": [ -0.6112435, 44.7951264, 0.0 ] } },
{ "type": "Feature", "properties": { "Name": "Groupe scolaire Léon Grimault", "description": null, "timestamp": null, "begin": null, "end": null, "altitudeMode": null, "tessellate": -1, "extrude": -1, "visibility": -1, "drawOrder": null, "icon": null }, "geometry": { "type": "Point", "coordinates": [ -1.6486794, 48.0910929, 0.0 ] } },
{ "type": "Feature", "properties": { "Name": "Ecole de la vie", "description": null, "timestamp": null, "begin": null, "end": null, "altitudeMode": null, "tessellate": -1, "extrude": -1, "visibility": -1, "drawOrder": null, "icon": null }, "geometry": { "type": "Point", "coordinates": [ -2.065819, 48.6386214, 0.0 ] } },
{ "type": "Feature", "properties": { "Name": "C.L.E.P.T.", "description": null, "timestamp": null, "begin": null, "end": null, "altitudeMode": null, "tessellate": -1, "extrude": -1, "visibility": -1, "drawOrder": null, "icon": null }, "geometry": { "type": "Point", "coordinates": [ 5.7338909, 45.1645866, 0.0 ] } },
{ "type": "Feature", "properties": { "Name": "Institut Médico Pédagogique Chantalouette", "description": null, "timestamp": null, "begin": null, "end": null, "altitudeMode": null, "tessellate": -1, "extrude": -1, "visibility": -1, "drawOrder": null, "icon": null }, "geometry": { "type": "Point", "coordinates": [ 4.402105600000027, 45.4230568, 0.0 ] } },
{ "type": "Feature", "properties": { "Name": "Lycée Expérimental", "description": null, "timestamp": null, "begin": null, "end": null, "altitudeMode": null, "tessellate": -1, "extrude": -1, "visibility": -1, "drawOrder": null, "icon": null }, "geometry": { "type": "Point", "coordinates": [ -2.205514, 47.2731469, 0.0 ] } },
{ "type": "Feature", "properties": { "Name": "École primaire publique Ange Guépin", "description": null, "timestamp": null, "begin": null, "end": null, "altitudeMode": null, "tessellate": -1, "extrude": -1, "visibility": -1, "drawOrder": null, "icon": null }, "geometry": { "type": "Point", "coordinates": [ -1.519869400000061, 47.2178937, 0.0 ] } },
{ "type": "Feature", "properties": { "Name": "Les amis du petit monde", "description": null, "timestamp": null, "begin": null, "end": null, "altitudeMode": null, "tessellate": -1, "extrude": -1, "visibility": -1, "drawOrder": null, "icon": null }, "geometry": { "type": "Point", "coordinates": [ -1.875150699999949, 47.0182864, 0.0 ] } },
{ "type": "Feature", "properties": { "Name": "Association Sur les Chemins de l'Ecole", "description": null, "timestamp": null, "begin": null, "end": null, "altitudeMode": null, "tessellate": -1, "extrude": -1, "visibility": -1, "drawOrder": null, "icon": null }, "geometry": { "type": "Point", "coordinates": [ 4.038654100000031, 49.2541535, 0.0 ] } },
{ "type": "Feature", "properties": { "Name": "Ecole plein air C.O.T.E.A.U.", "description": "che. d'Amance 54130 St-Max", "timestamp": null, "begin": null, "end": null, "altitudeMode": null, "tessellate": -1, "extrude": -1, "visibility": -1, "drawOrder": null, "icon": null }, "geometry": { "type": "Point", "coordinates": [ 6.208732, 48.7122883, 0.0 ] } },
{ "type": "Feature", "properties": { "Name": "Ecole primaire\n", "description": null, "timestamp": null, "begin": null, "end": null, "altitudeMode": null, "tessellate": -1, "extrude": -1, "visibility": -1, "drawOrder": null, "icon": null }, "geometry": { "type": "Point", "coordinates": [ 5.97645, 48.6601989, 0.0 ] } },
{ "type": "Feature", "properties": { "Name": "Ecole Maternelle Publique Anatole France", "description": null, "timestamp": null, "begin": null, "end": null, "altitudeMode": null, "tessellate": -1, "extrude": -1, "visibility": -1, "drawOrder": null, "icon": null }, "geometry": { "type": "Point", "coordinates": [ -3.413248599999974, 47.7894188, 0.0 ] } },
{ "type": "Feature", "properties": { "Name": "Groupe Scolaire Concorde", "description": null, "timestamp": null, "begin": null, "end": null, "altitudeMode": null, "tessellate": -1, "extrude": -1, "visibility": -1, "drawOrder": null, "icon": null }, "geometry": { "type": "Point", "coordinates": [ 3.113925699999982, 50.6383108, 0.0 ] } },
{ "type": "Feature", "properties": { "Name": "Ecole de L'A.P.I.", "description": null, "timestamp": null, "begin": null, "end": null, "altitudeMode": null, "tessellate": -1, "extrude": -1, "visibility": -1, "drawOrder": null, "icon": null }, "geometry": { "type": "Point", "coordinates": [ 0.462826, 48.7925856, 0.0 ] } },
{ "type": "Feature", "properties": { "Name": "Ecole du soleil\n", "description": "64110 Saint Faust-de-Haut", "timestamp": null, "begin": null, "end": null, "altitudeMode": null, "tessellate": -1, "extrude": -1, "visibility": -1, "drawOrder": null, "icon": null }, "geometry": { "type": "Point", "coordinates": [ -0.451937, 43.2682024, 0.0 ] } },
{ "type": "Feature", "properties": { "Name": "Ecole publique", "description": "pl. Petitgrands 64160 Serres-Morlaas", "timestamp": null, "begin": null, "end": null, "altitudeMode": null, "tessellate": -1, "extrude": -1, "visibility": -1, "drawOrder": null, "icon": null }, "geometry": { "type": "Point", "coordinates": [ -0.2582056, 43.3269489, 0.0 ] } },
{ "type": "Feature", "properties": { "Name": "Ecole Michaël Pédagogie Rudolf Steiner", "description": null, "timestamp": null, "begin": null, "end": null, "altitudeMode": null, "tessellate": -1, "extrude": -1, "visibility": -1, "drawOrder": null, "icon": null }, "geometry": { "type": "Point", "coordinates": [ 7.7138493, 48.5784369, 0.0 ] } },
{ "type": "Feature", "properties": { "Name": "Cours Vidor\n", "description": null, "timestamp": null, "begin": null, "end": null, "altitudeMode": null, "tessellate": -1, "extrude": -1, "visibility": -1, "drawOrder": null, "icon": null }, "geometry": { "type": "Point", "coordinates": [ 4.8320473, 45.7555908, 0.0 ] } },
{ "type": "Feature", "properties": { "Name": "Organisation de Gestion de l'Ecole Montessori OGEM", "description": null, "timestamp": null, "begin": null, "end": null, "altitudeMode": null, "tessellate": -1, "extrude": -1, "visibility": -1, "drawOrder": null, "icon": null }, "geometry": { "type": "Point", "coordinates": [ 4.851768, 45.7669177, 0.0 ] } },
{ "type": "Feature", "properties": { "Name": "Ecole Anatole France", "description": null, "timestamp": null, "begin": null, "end": null, "altitudeMode": null, "tessellate": -1, "extrude": -1, "visibility": -1, "drawOrder": null, "icon": null }, "geometry": { "type": "Point", "coordinates": [ 4.921900400000027, 45.7830467, 0.0 ] } },
{ "type": "Feature", "properties": { "Name": "Association E.P.I.", "description": null, "timestamp": null, "begin": null, "end": null, "altitudeMode": null, "tessellate": -1, "extrude": -1, "visibility": -1, "drawOrder": null, "icon": null }, "geometry": { "type": "Point", "coordinates": [ 6.706016500000032, 47.5788334, 0.0 ] } },
{ "type": "Feature", "properties": { "Name": "Collège Le Ronceray", "description": null, "timestamp": null, "begin": null, "end": null, "altitudeMode": null, "tessellate": -1, "extrude": -1, "visibility": -1, "drawOrder": null, "icon": null }, "geometry": { "type": "Point", "coordinates": [ 0.209281, 47.9686411, 0.0 ] } },
{ "type": "Feature", "properties": { "Name": "Ecole Saint Merri ; école à Aires Ouvertes", "description": null, "timestamp": null, "begin": null, "end": null, "altitudeMode": null, "tessellate": -1, "extrude": -1, "visibility": -1, "drawOrder": null, "icon": null }, "geometry": { "type": "Point", "coordinates": [ 2.352926499999967, 48.8593086, 0.0 ] } },
{ "type": "Feature", "properties": { "Name": "Crèche Collective et Halte-garderie Associative Le Trempoline", "description": null, "timestamp": null, "begin": null, "end": null, "altitudeMode": null, "tessellate": -1, "extrude": -1, "visibility": -1, "drawOrder": null, "icon": null }, "geometry": { "type": "Point", "coordinates": [ 2.347642800000017, 48.8392312, 0.0 ] } },
{ "type": "Feature", "properties": { "Name": "Ecole Alsacienne", "description": null, "timestamp": null, "begin": null, "end": null, "altitudeMode": null, "tessellate": -1, "extrude": -1, "visibility": -1, "drawOrder": null, "icon": null }, "geometry": { "type": "Point", "coordinates": [ 2.333720299999982, 48.8410468, 0.0 ] } },
{ "type": "Feature", "properties": { "Name": "Jardin d'Enfants Gan Zikhrone Yaacov", "description": null, "timestamp": null, "begin": null, "end": null, "altitudeMode": null, "tessellate": -1, "extrude": -1, "visibility": -1, "drawOrder": null, "icon": null }, "geometry": { "type": "Point", "coordinates": [ 2.309836200000063, 48.8511046, 0.0 ] } },
{ "type": "Feature", "properties": { "Name": "Ecole Nouvelle Maternelle et Primaire Saint Thomas d'Aquin", "description": null, "timestamp": null, "begin": null, "end": null, "altitudeMode": null, "tessellate": -1, "extrude": -1, "visibility": -1, "drawOrder": null, "icon": null }, "geometry": { "type": "Point", "coordinates": [ 2.3302139, 48.8552846, 0.0 ] } },