[{"id":"3481","lat":"46.206386","lng":"5.240605","name":"Tendance Ecolo ","address":"10 Boulevard John Kennedy,01000,bourg En Bresse ","popup":"","link":"0","blank":"1","icon":"","created":1557995132,"updated":-62169984000,"maps":["1"],"edit":false},{"id":"3482","lat":"46.121318","lng":"4.956703","name":"Cote Rue Cote Jardin ","address":"65 Rue Gambetta,01400,chatillon Sur Chalaronne ","popup":"","link":"0","blank":"1","icon":"","created":1557995132,"updated":-62169984000,"maps":["1"],"edit":false},{"id":"3483","lat":"45.963688","lng":"5.341541","name":"Le Vert De Terre ","address":"699 Avenue Leon Blum,01500,amberieu En Bugey ","popup":"","link":"0","blank":"1","icon":"","created":1557995132,"updated":-62169984000,"maps":["1"],"edit":false},{"id":"3484","lat":"46.228659","lng":"5.994265","name":"Satoriz Thoiry ","address":"Zone Commerciale ,01710,thoiry ","popup":"","link":"0","blank":"1","icon":"","created":1557995132,"updated":-62169984000,"maps":["1"],"edit":false},{"id":"3485","lat":"44.082055","lng":"6.224351","name":" La Dormance Biocoop ","address":"23 Avenue Du Marechal Juin,04000,digne ","popup":"","link":"0","blank":"1","icon":"","created":1557995132,"updated":-62169984000,"maps":["1"],"edit":false},{"id":"3486","lat":"43.822158","lng":"5.794313","name":" Biocoop Le Ble En Herbe ","address":"Zi Saint Joseph ,04100,manosque ","popup":"","link":"0","blank":"1","icon":"","created":1557995132,"updated":-62169984000,"maps":["1"],"edit":false},{"id":"3488","lat":"43.832817","lng":"5.782723","name":"O Grain Et A Mesure ","address":"Bat E05c,04100,manosque ","popup":"","link":"0","blank":"1","icon":"","created":1557995132,"updated":-62169984000,"maps":["1"],"edit":false},{"id":"3489","lat":"44.351747","lng":"6.356213","name":"Autramen ","address":"5 Grande Rue,04140,seyne Les Alpes ","popup":"","link":"0","blank":"1","icon":"","created":1557995132,"updated":-62169984000,"maps":["1"],"edit":false},{"id":"3490","lat":"44.038781","lng":"5.629264","name":"Librairie Le Bleuet ","address":"Rue Saint Just ,04150,banon ","popup":"","link":"0","blank":"1","icon":"","created":1557995132,"updated":-62169984000,"maps":["1"],"edit":false},{"id":"3491","lat":"46.800276","lng":"0.552189","name":"Restaurant le Stendhal","address":"Centre Culturel Simone-signoret ,04160,ch\u00e2teau Arnoux ","popup":"","link":"","blank":"1","icon":"","created":1557995132,"updated":1596036911,"maps":["1"],"edit":false},{"id":"3492","lat":"44.140663","lng":"5.963409","name":"Scop L'\u00e2ge De Faire-le Journal ","address":"9 Chemin De Choisy,04200,peipin ","popup":"","link":"0","blank":"1","icon":"","created":1557995132,"updated":-62169984000,"maps":["1"],"edit":false},{"id":"3493","lat":"44.138063","lng":"5.967500","name":" La Vie Claire ","address":"Espace Champarlau ,04200,peipin ","popup":"","link":"0","blank":"1","icon":"","created":1557995132,"updated":-62169984000,"maps":["1"],"edit":false},{"id":"3494","lat":"43.957872","lng":"5.796135","name":"Cum.panis ","address":"Za Les Chalus ,04300,forcalquier ","popup":"","link":"0","blank":"1","icon":"","created":1557995132,"updated":-62169984000,"maps":["1"],"edit":false},{"id":"3495","lat":"43.958436","lng":"5.777571","name":"Biocoop Jojoba ","address":"5, Place De Verdun,04300,forcalquier ","popup":"","link":"0","blank":"1","icon":"","created":1557995132,"updated":-62169984000,"maps":["1"],"edit":false},{"id":"3496","lat":"43.955844","lng":"5.770516","name":"La Halle Paysanne ","address":"Centre Commercial Des 3 Chemins,04300,forcalquier ","popup":"","link":"0","blank":"1","icon":"","created":1557995132,"updated":-62169984000,"maps":["1"],"edit":false},{"id":"3498","lat":"43.917077","lng":"5.919906","name":"Oraison Nature ","address":"8 Bis Rue Eugene Revest,04700,oraison ","popup":"","link":"0","blank":"1","icon":"","created":1557995132,"updated":-62169984000,"maps":["1"],"edit":false},{"id":"3499","lat":"44.562456","lng":"6.094619","name":"E Changeons Le Monde ","address":"(Commerce Equitable) ,05000,gap ","popup":"","link":"0","blank":"1","icon":"","created":1557995132,"updated":-62169984000,"maps":["1"],"edit":false},{"id":"3500","lat":"44.549603","lng":"6.065309","name":"Biocoop Le Grenier ","address":"3 Rue Alphonse Daudet,05000,gap ","popup":"","link":"0","blank":"1","icon":"","created":1557995132,"updated":-62169984000,"maps":["1"],"edit":false},{"id":"3501","lat":"44.559621","lng":"6.080248","name":"Sarl Alpes Saveur Bio ","address":"Biomonde ,05000,gap ","popup":"","link":"0","blank":"1","icon":"","created":1557995132,"updated":-62169984000,"maps":["1"],"edit":false},{"id":"3502","lat":"44.559621","lng":"6.080248","name":"Coiffeur ","address":"Chez Olivier ,05000,gap ","popup":"","link":"0","blank":"1","icon":"","created":1557995132,"updated":-62169984000,"maps":["1"],"edit":false},{"id":"3505","lat":"44.781548","lng":"6.027836","name":"Le Panier Du Valgo ","address":"Place Ren\u00e9 Mourenas ,05800,st Firmin ","popup":"<p>Le Panier Du Valgo<\/p>\n<p>Place Ren\u00e9 Mourenas,<\/p>\n<p>05800, St Firmin<\/p>\n","link":"","blank":"1","icon":"","created":1557995132,"updated":1593510508,"maps":["1"],"edit":false},{"id":"3506","lat":"43.707100","lng":"7.259500","name":"Librairie Mots du monde","address":"5 Rue Vernier, Provence-Alpes-C\u00f4te d'Azur, Nice, France","popup":"","link":"","blank":"1","icon":"","created":1557995132,"updated":1581330468,"maps":["1"],"edit":false},{"id":"3507","lat":"43.707100","lng":"7.259500","name":"Artisans Du Monde ","address":"5 Rue Vernier, Provence-Alpes-C\u00f4te d'Azur, Nice, France","popup":"","link":"","blank":"1","icon":"","created":1557995132,"updated":1581330502,"maps":["1"],"edit":false},{"id":"3508","lat":"43.727527","lng":"7.265609","name":"Riviera Biocoop ","address":"104 Avenue Henri Dunant,06100,nice ","popup":"","link":"0","blank":"1","icon":"","created":1557995132,"updated":-62169984000,"maps":["1"],"edit":false},{"id":"3509","lat":"43.610304","lng":"6.963416","name":"Mediterranee Biocoop ","address":"Angle Chn Nartassier ,06370,mouans Sartoux ","popup":"","link":"0","blank":"1","icon":"","created":1557995132,"updated":-62169984000,"maps":["1"],"edit":false},{"id":"3510","lat":"43.619402","lng":"6.971116","name":"Maison Du Commerce Equitable ","address":"Ribas Patrick ,06370,mouans Sartoux ","popup":"","link":"0","blank":"1","icon":"","created":1557995132,"updated":-62169984000,"maps":["1"],"edit":false},{"id":"3511","lat":"45.244123","lng":"4.673737","name":"Biocoop Bionacelle ","address":"30 Boulevard De La Republique,07100,annonay ","popup":"","link":"0","blank":"1","icon":"","created":1557995132,"updated":-62169984000,"maps":["1"],"edit":false},{"id":"3512","lat":"44.517848","lng":"4.324240","name":"Les Recyclarts ","address":"Le Blajou ,07110,uzer ","popup":"","link":"0","blank":"1","icon":"","created":1557995132,"updated":-62169984000,"maps":["1"],"edit":false},{"id":"3513","lat":"44.542154","lng":"4.293540","name":"Les Recycl'arts ","address":"Place Paul Mercier ,07110,largenti\u00e8re ","popup":"","link":"0","blank":"1","icon":"","created":1557995132,"updated":-62169984000,"maps":["1"],"edit":false},{"id":"3514","lat":"44.505553","lng":"4.363016","name":"Boutique Du Vieil Audon ","address":"Scea Du Viel Audon ,07120,balazuc ","popup":"","link":"0","blank":"1","icon":"","created":1557995132,"updated":-62169984000,"maps":["1"],"edit":false},{"id":"3515","lat":"44.942758","lng":"4.854218","name":"Satoriz Saint Peray ","address":"Zone Des Murets ,07130,st Peray ","popup":"","link":"0","blank":"1","icon":"","created":1557995132,"updated":-62169984000,"maps":["1"],"edit":false},{"id":"3517","lat":"44.814234","lng":"4.485004","name":"Ardelaine ","address":"Lieu Dit Puausson ,07190,st Pierreville ","popup":"","link":"0","blank":"1","icon":"","created":1557995132,"updated":-62169984000,"maps":["1"],"edit":false},{"id":"3518","lat":"44.611815","lng":"4.409430","name":"Les Gatobio Biocoop ","address":"970 Route De Montelimar,07200,st Didier Sous Aubenas ","popup":"","link":"0","blank":"1","icon":"","created":1557995132,"updated":-62169984000,"maps":["1"],"edit":false},{"id":"3519","lat":"44.625076","lng":"4.392441","name":"La Maison D Olive ","address":"Pont D Aubenas ,07200,aubenas ","popup":"","link":"0","blank":"1","icon":"","created":1557995132,"updated":-62169984000,"maps":["1"],"edit":false},{"id":"3520","lat":"44.476049","lng":"4.244356","name":"L Echoppe Bio ","address":"Route Departementale 104,07260,joyeuse ","popup":"","link":"0","blank":"1","icon":"","created":1557995132,"updated":-62169984000,"maps":["1"],"edit":false},{"id":"3522","lat":"49.772260","lng":"4.720987","name":"Artisans Du Monde ","address":"14 Rue De La Paix,08000,charleville M\u00e9zi\u00e8res ","popup":"","link":"0","blank":"1","icon":"","created":1557995132,"updated":-62169984000,"maps":["1"],"edit":false},{"id":"3523","lat":"49.874486","lng":"4.377077","name":"Bell'occas ","address":"19 Rte De Rocroi - Mon Id\u00e9e,08260,auvilliers Les Forges ","popup":"","link":"0","blank":"1","icon":"","created":1557995132,"updated":-62169984000,"maps":["1"],"edit":false},{"id":"3524","lat":"42.962895","lng":"1.600541","name":"Biocoop Mirabelle ","address":"C\/o Monique Ferret ,09000,foix ","popup":"","link":"0","blank":"1","icon":"","created":1557995132,"updated":-62169984000,"maps":["1"],"edit":false},{"id":"3525","lat":"43.115491","lng":"1.613680","name":"Abc Du Bio ","address":"38 Rue Victor Hugo,09100,pamiers ","popup":"","link":"0","blank":"1","icon":"","created":1557995132,"updated":-62169984000,"maps":["1"],"edit":false},{"id":"3526","lat":"43.116575","lng":"1.613331","name":"Bio Maiel ","address":"Village Automobile ,09100,pamiers ","popup":"","link":"0","blank":"1","icon":"","created":1557995132,"updated":-62169984000,"maps":["1"],"edit":false},{"id":"3527","lat":"42.981979","lng":"1.149643","name":"Bio S Faire ","address":"15 Avenue Aulot,09200,st Girons ","popup":"","link":"0","blank":"1","icon":"","created":1557995132,"updated":-62169984000,"maps":["1"],"edit":false},{"id":"3528","lat":"42.984868","lng":"1.144820","name":"Croustades Martine Crespo ","address":"38 Rue Pierre Mazaud,09200,st Girons ","popup":"","link":"0","blank":"1","icon":"","created":1557995132,"updated":-62169984000,"maps":["1"],"edit":false},{"id":"3529","lat":"42.888832","lng":"1.347162","name":"Le Jardin Des 7 Vallees","address":"15 Rue De La Montagne,09320,massat ","popup":"","link":"0","blank":"1","icon":"","created":1557995132,"updated":-62169984000,"maps":["1"],"edit":false},{"id":"3530","lat":"43.137405","lng":"1.305096","name":"Tabac Presse ","address":"Molina Ren\u00e9 ,09350,daumazan-sur-arize ","popup":"","link":"0","blank":"1","icon":"","created":1557995132,"updated":-62169984000,"maps":["1"],"edit":false},{"id":"3531","lat":"48.297726","lng":"4.077250","name":"Nature Et Sant\u00e9 ","address":"1 Rue Emile Zola,10000,troyes ","popup":"","link":"0","blank":"1","icon":"","created":1557995132,"updated":-62169984000,"maps":["1"],"edit":false},{"id":"3532","lat":"48.295261","lng":"4.074191","name":"Artisans Du Monde Troyes ","address":"17 Rue General Saussier,10000,troyes ","popup":"","link":"0","blank":"1","icon":"","created":1557995132,"updated":-62169984000,"maps":["1"],"edit":false},{"id":"3533","lat":"48.281667","lng":"4.053165","name":"Persil Et Ciboulette ","address":"13 Av Charles De Refuge,10120,st Andr\u00e9 Les Vergers ","popup":"","link":"0","blank":"1","icon":"","created":1557995132,"updated":-62169984000,"maps":["1"],"edit":false},{"id":"3534","lat":"48.286068","lng":"4.053932","name":"Hermes Cooperative ","address":"127 Avenue Wilson,10120,st Andre Les Vergers ","popup":"","link":"0","blank":"1","icon":"","created":1557995132,"updated":-62169984000,"maps":["1"],"edit":false},{"id":"3535","lat":"48.286340","lng":"4.054808","name":"Scop Des Viennes ","address":"119 Avenue Wilson,10120,st Andre Les Vergers ","popup":"","link":"0","blank":"1","icon":"","created":1557995132,"updated":-62169984000,"maps":["1"],"edit":false},{"id":"3536","lat":"43.209402","lng":"2.314602","name":"Sarl Scop Tourne Sol ","address":"Zi La Bouriette ,11000,carcassonne ","popup":"","link":"0","blank":"1","icon":"","created":1557995132,"updated":-62169984000,"maps":["1"],"edit":false},{"id":"3537","lat":"44.104491","lng":"3.081866","name":"Marche Paysans ","address":"14 Impasse Mathieu Prevots,11100,millau ","popup":"","link":"0","blank":"1","icon":"","created":1557995132,"updated":-62169984000,"maps":["1"],"edit":false},{"id":"3538","lat":"43.187624","lng":"3.004404","name":"Terrabio ","address":"36 A Boulevard Marcel Semba,11100,narbonne ","popup":"","link":"0","blank":"1","icon":"","created":1557995132,"updated":-62169984000,"maps":["1"],"edit":false},{"id":"3539","lat":"42.882038","lng":"2.189204","name":"Terre Mere ","address":"Avenue De Marides ,11500,quillan ","popup":"","link":"0","blank":"1","icon":"","created":1557995132,"updated":-62169984000,"maps":["1"],"edit":false},{"id":"3540","lat":"44.350680","lng":"2.578399","name":"Artisans Du Monde Rodez ","address":"Dorvaux Francois ,12000,rodez ","popup":"","link":"0","blank":"1","icon":"","created":1557995132,"updated":-62169984000,"maps":["1"],"edit":false},{"id":"3541","lat":"44.365002","lng":"2.571079","name":"Campana Biocoop ","address":"Parc Commercial Des Moutiers ,12000,rodez ","popup":"","link":"0","blank":"1","icon":"","created":1557995132,"updated":-62169984000,"maps":["1"],"edit":false},{"id":"3542","lat":"44.104491","lng":"3.081866","name":"Au Marche Paysan ","address":"14 Impasse Mathieu Prevots,12100,millau ","popup":"","link":"0","blank":"1","icon":"","created":1557995132,"updated":-62169984000,"maps":["1"],"edit":false},{"id":"3543","lat":"44.097328","lng":"3.077534","name":"Librairie Plume(s) ","address":"16 Rue St Martin,12100,millau ","popup":"","link":"0","blank":"1","icon":"","created":1557995132,"updated":-62169984000,"maps":["1"],"edit":false},{"id":"3544","lat":"44.574101","lng":"2.256327","name":"Magasin Bio Du Bassin ","address":"Cassan Alois ,12300,decazeville ","popup":"","link":"0","blank":"1","icon":"","created":1557995132,"updated":-62169984000,"maps":["1"],"edit":false},{"id":"3545","lat":"43.823552","lng":"2.877945","name":"Epicerie Vival ","address":"3, Grand-rue,12360,camar\u00e8s ","popup":"","link":"0","blank":"1","icon":"","created":1557995132,"updated":-62169984000,"maps":["1"],"edit":false},{"id":"3546","lat":"43.959480","lng":"2.885482","name":"March\u00e9 De St Affrique ","address":"Samedi Matin ,12400,st Affrique ","popup":"","link":"0","blank":"1","icon":"","created":1557995132,"updated":-62169984000,"maps":["1"],"edit":false},{"id":"3547","lat":"43.957457","lng":"2.880132","name":"Biocoop Lou Cussou ","address":"19 Boulevard De Verdun,12400,st Afrique ","popup":"","link":"0","blank":"1","icon":"","created":1557995132,"updated":-62169984000,"maps":["1"],"edit":false},{"id":"3548","lat":"43.300530","lng":"5.389505","name":"Artisans Du Monde Marseille ","address":"87 Boulevard De La Liberation,13001,marseille ","popup":"","link":"0","blank":"1","icon":"","created":1557995132,"updated":-62169984000,"maps":["1"],"edit":false},{"id":"3549","lat":"43.302058","lng":"5.506025","name":"Biocoop Des Collines ","address":"203 Route Des Camoins,13011,marseille ","popup":"","link":"0","blank":"1","icon":"","created":1557995132,"updated":-62169984000,"maps":["1"],"edit":false},{"id":"3550","lat":"43.540892","lng":"5.445862","name":"La Coumpagnie Biocoop ","address":"C\/o Paule Tempier ,13090,aix En Provence ","popup":"","link":"0","blank":"1","icon":"","created":1557995132,"updated":-62169984000,"maps":["1"],"edit":false},{"id":"3551","lat":"43.436850","lng":"5.261267","name":"Satoriz Vitrolles ","address":"Grand Sud - Zac Du Liourat ,13127,vitrolles ","popup":"","link":"0","blank":"1","icon":"","created":1557995132,"updated":-62169984000,"maps":["1"],"edit":false},{"id":"3552","lat":"43.378544","lng":"5.681222","name":"Biocoop Bioestella ","address":"M. Mme Bouisseren ,13390,auriol ","popup":"","link":"0","blank":"1","icon":"","created":1557995132,"updated":-62169984000,"maps":["1"],"edit":false},{"id":"3553","lat":"43.297643","lng":"5.598831","name":"Satoriz, Magasin Bio ","address":"2 Imp Des Roseli\u00e8res,13400,aubagne ","popup":"","link":"0","blank":"1","icon":"","created":1557995132,"updated":-62169984000,"maps":["1"],"edit":false},{"id":"3554","lat":"43.178492","lng":"5.610935","name":"L'accueillette ","address":"1 Av Du Pr\u00e9sident Wilson,13600,la Ciotat ","popup":"","link":"0","blank":"1","icon":"","created":1557995132,"updated":-62169984000,"maps":["1"],"edit":false},{"id":"3555","lat":"43.714080","lng":"5.310703","name":"Association Pour Une Action Citoyenne ","address":"C\/o Laurence Decaesteker Andre ,13640,la Roque D Antheron ","popup":"","link":"0","blank":"1","icon":"","created":1557995132,"updated":-62169984000,"maps":["1"],"edit":false},{"id":"3556","lat":"49.186086","lng":"-0.404910","name":"Coop Un Caen ","address":"18 Rue Savorgnan De Brazza,14000,caen ","popup":"","link":"0","blank":"1","icon":"","created":1557995132,"updated":-62169984000,"maps":["1"],"edit":false},{"id":"3557","lat":"49.186086","lng":"-0.404910","name":"Coop Un De Caen ","address":"18 Rue Savorgnan De Brazza,14000,caen ","popup":"","link":"0","blank":"1","icon":"","created":1557995132,"updated":-62169984000,"maps":["1"],"edit":false},{"id":"3558","lat":"49.182906","lng":"-0.369209","name":"Patrick Hamelin Paysan-fromager (Fromages Au Lait De Brebis) ","address":"March\u00e9 Du Vendredi Place St Sauveur ,14000,caen ","popup":"","link":"0","blank":"1","icon":"","created":1557995132,"updated":-62169984000,"maps":["1"],"edit":false},{"id":"3559","lat":"49.183779","lng":"-0.356993","name":"Patrick Hamelin Paysan-fromager (Fromages Au Lait De Brebis) ","address":"March\u00e9 Du Dimanche, Place Courtonne ,14000,caen ","popup":"","link":"0","blank":"1","icon":"","created":1557995132,"updated":-62169984000,"maps":["1"],"edit":false},{"id":"3560","lat":"49.198553","lng":"-0.336093","name":"Biocoop Jonathan ","address":"C\/o Casse Philippe ,14200,herouville St Clair ","popup":"","link":"0","blank":"1","icon":"","created":1557995132,"updated":-62169984000,"maps":["1"],"edit":false},{"id":"3561","lat":"48.896401","lng":"-0.200431","name":"Marjolaine ","address":"Isabelle Terry ,14700,falaise ","popup":"","link":"0","blank":"1","icon":"","created":1557995132,"updated":-62169984000,"maps":["1"],"edit":false},{"id":"3562","lat":"44.905232","lng":"2.452075","name":"Biocoop L Arbre A Pain ","address":"150 Avenue Du General Leclerc,15000,aurillac ","popup":"","link":"0","blank":"1","icon":"","created":1557995132,"updated":-62169984000,"maps":["1"],"edit":false},{"id":"3563","lat":"45.216376","lng":"2.338865","name":"Point Bio Alimentation Biologique ","address":"Rue Henri Pourrat ,15200,mauriac ","popup":"","link":"0","blank":"1","icon":"","created":1557995132,"updated":-62169984000,"maps":["1"],"edit":false},{"id":"3564","lat":"45.650431","lng":"0.155097","name":"Restaurant \u00c0 La Cantonaise ","address":"19 Rue Des 3 Notre Dame,16000,angoul\u00eame ","popup":"","link":"0","blank":"1","icon":"","created":1557995132,"updated":-62169984000,"maps":["1"],"edit":false},{"id":"3565","lat":"45.662463","lng":"0.137881","name":"Association Cyclofficine ","address":"11 Rue St Jean D'angely,16000,angoul\u00eame ","popup":"","link":"0","blank":"1","icon":"","created":1557995132,"updated":-62169984000,"maps":["1"],"edit":false},{"id":"3566","lat":"45.678859","lng":"-0.329115","name":"Biocoop Pays De Cognac ","address":"8 Rue Du Poitou,16100,chateaubernard ","popup":"","link":"0","blank":"1","icon":"","created":1557995132,"updated":-62169984000,"maps":["1"],"edit":false},{"id":"3567","lat":"46.185797","lng":"-1.160462","name":"Biocoop Regain ","address":"C\/o Association La Salicorne ,17140,lagord ","popup":"","link":"0","blank":"1","icon":"","created":1557995132,"updated":-62169984000,"maps":["1"],"edit":false},{"id":"3568","lat":"46.105305","lng":"-0.742790","name":"Univ Vert Bio ","address":"Richaume Patrice ,17700,surgeres ","popup":"","link":"0","blank":"1","icon":"","created":1557995132,"updated":-62169984000,"maps":["1"],"edit":false},{"id":"3569","lat":"47.075365","lng":"2.389687","name":"Biocoop Au Bourgeon Vert ","address":"69 Rue Barbes,18000,bourges ","popup":"","link":"0","blank":"1","icon":"","created":1557995132,"updated":-62169984000,"maps":["1"],"edit":false},{"id":"3570","lat":"47.302857","lng":"2.524390","name":"Salon De Th\u00e9 Basta ","address":"20 Place Henri Iv,18250,henrichemont ","popup":"","link":"0","blank":"1","icon":"","created":1557995132,"updated":-62169984000,"maps":["1"],"edit":false},{"id":"3571","lat":"47.458915","lng":"2.649977","name":"Cabinet De Kin\u00e9s ","address":"30 Grande Rue,18260,vailly Sur Sauldre ","popup":"","link":"0","blank":"1","icon":"","created":1557995132,"updated":-62169984000,"maps":["1"],"edit":false},{"id":"3572","lat":"47.490315","lng":"2.438518","name":"Cabinet De Kin\u00e9s ","address":"9 Place De La Tour,18700,aubigny Sur N\u00e8re ","popup":"","link":"0","blank":"1","icon":"","created":1557995132,"updated":-62169984000,"maps":["1"],"edit":false},{"id":"3573","lat":"47.487964","lng":"2.437479","name":"Chez Marylou ","address":"4 Place Du Mail,18700,aubigny Sur N\u00e8re ","popup":"","link":"0","blank":"1","icon":"","created":1557995132,"updated":-62169984000,"maps":["1"],"edit":false},{"id":"3574","lat":"47.488306","lng":"2.437440","name":"L'epicerie Bio ","address":"Place Du Mail ,18700,aubigny Sur N\u00e8re ","popup":"","link":"0","blank":"1","icon":"","created":1557995132,"updated":-62169984000,"maps":["1"],"edit":false},{"id":"3575","lat":"45.258798","lng":"1.757356","name":"Planete Nature ","address":"21 Avenue Winston Churchill,19000,tulle ","popup":"","link":"0","blank":"1","icon":"","created":1557995132,"updated":-62169984000,"maps":["1"],"edit":false},{"id":"3576","lat":"45.245263","lng":"1.412468","name":"Le Fournil De Bridal ","address":"900 Route De Brive,19130,objat ","popup":"","link":"0","blank":"1","icon":"","created":1557995132,"updated":-62169984000,"maps":["1"],"edit":false},{"id":"3577","lat":"47.320874","lng":"5.033969","name":"Caf\u00e9 Les Trois Coups ","address":"10 Rue Condorcet,21000,dijon ","popup":"","link":"0","blank":"1","icon":"","created":1557995132,"updated":-62169984000,"maps":["1"],"edit":false},{"id":"3578","lat":"47.318841","lng":"5.040639","name":"Librairie La Fleur Qui Pousse \u00e0 L'int\u00e9rieur ","address":"5, Place Des Cordeliers,21000,dijon ","popup":"","link":"0","blank":"1","icon":"","created":1557995132,"updated":-62169984000,"maps":["1"],"edit":false},{"id":"3579","lat":"48.505538","lng":"-2.763735","name":"Biocoop La Gambille ","address":"10 Rue De Robien,22000,st Brieuc ","popup":"","link":"0","blank":"1","icon":"","created":1557995132,"updated":-62169984000,"maps":["1"],"edit":false},{"id":"3580","lat":"48.174048","lng":"-3.297289","name":"Boulangerie\/\u00e9picerie Bio \"Folavoine\" ","address":"Place De L'\u00e9glise ,22110,mellionnec ","popup":"","link":"0","blank":"1","icon":"","created":1557995132,"updated":-62169984000,"maps":["1"],"edit":false},{"id":"3581","lat":"48.236009","lng":"-3.318312","name":"\u00c9Picerie Bio \"Croqu'nature\" ","address":"2 R Abb\u00e9 Gibert,22110,rostrenen ","popup":"","link":"0","blank":"1","icon":"","created":1557995132,"updated":-62169984000,"maps":["1"],"edit":false},{"id":"3582","lat":"48.337451","lng":"-3.250935","name":"\u00c9Picerie Bio Associative \"\u00c9Pice Et Tout\" ","address":"Le Bourg ,22110,tr\u00e9margat ","popup":"","link":"0","blank":"1","icon":"","created":1557995132,"updated":-62169984000,"maps":["1"],"edit":false},{"id":"3583","lat":"48.529822","lng":"-2.762161","name":"Cedapa ","address":"20 Avenue Du Chalutier Sans Pitie,22193,plerin Cedex ","popup":"","link":"0","blank":"1","icon":"","created":1557995132,"updated":-62169984000,"maps":["1"],"edit":false},{"id":"3585","lat":"48.775549","lng":"-3.487059","name":"Biocoop Douargann ","address":"Rond-point St-marc ,22300,lannion ","popup":"","link":"0","blank":"1","icon":"","created":1557995132,"updated":-62169984000,"maps":["1"],"edit":false},{"id":"3586","lat":"48.744785","lng":"-3.477896","name":"Traou An Douar Biocoop ","address":"Rue Jean Paul Sartre ,22300,lannion ","popup":"","link":"0","blank":"1","icon":"","created":1557995132,"updated":-62169984000,"maps":["1"],"edit":false},{"id":"3587","lat":"48.636038","lng":"-3.594750","name":"L Eco Cotier ","address":"C\/o Mme Le Bozec ,22310,plestin Les Greves ","popup":"","link":"0","blank":"1","icon":"","created":1557995132,"updated":-62169984000,"maps":["1"],"edit":false},{"id":"3588","lat":"48.776093","lng":"-3.304555","name":"Bar Le Chat Qui Louche ","address":"2a Route De Pont Losquet,22450,camlez ","popup":"","link":"0","blank":"1","icon":"","created":1557995132,"updated":-62169984000,"maps":["1"],"edit":false},{"id":"3589","lat":"48.777296","lng":"-3.051100","name":"Lun & Sol Biocoop ","address":"10 Place De Bretagne,22500,paimpol ","popup":"","link":"0","blank":"1","icon":"","created":1557995132,"updated":-62169984000,"maps":["1"],"edit":false},{"id":"3590","lat":"48.381299","lng":"-1.979908","name":"Le Puits Sans Fond ","address":"10 Rue De La Liberation,22630,evran ","popup":"","link":"0","blank":"1","icon":"","created":1557995132,"updated":-62169984000,"maps":["1"],"edit":false},{"id":"3591","lat":"48.807641","lng":"-3.442026","name":"Biocoop Douar Bihan ","address":"67 Rue Anatole Le Braz,22700,perros-guirec ","popup":"","link":"0","blank":"1","icon":"","created":1557995132,"updated":-62169984000,"maps":["1"],"edit":false},{"id":"3592","lat":"46.391510","lng":"2.113004","name":"Chez Eric Robin-lamotte ","address":"Le Grand Mery ,23600,nouzerines ","popup":"","link":"0","blank":"1","icon":"","created":1557995132,"updated":-62169984000,"maps":["1"],"edit":false},{"id":"3593","lat":"47.038236","lng":"2.637825","name":"Bergerac Bio ","address":"C\/o Dartenset Bernard ,24100,bergerac ","popup":"","link":"0","blank":"1","icon":"","created":1557995132,"updated":-62169984000,"maps":["1"],"edit":false},{"id":"3594","lat":"44.915770","lng":"0.921795","name":"Le Bugue ","address":"Epicerie Boulangerie Biosmose ,24260,le Bugue ","popup":"","link":"0","blank":"1","icon":"","created":1557995132,"updated":-62169984000,"maps":["1"],"edit":false},{"id":"3595","lat":"45.321801","lng":"0.586326","name":"Tri Cycle Enchant\u00e9 ","address":"Grand Rue ,24310,bourdeilles ","popup":"","link":"0","blank":"1","icon":"","created":1557995132,"updated":-62169984000,"maps":["1"],"edit":false},{"id":"3596","lat":"44.940460","lng":"1.007501","name":"Restaurant L'escale Des Saveurs ","address":"14, Promenade De La Vezere,24620,les Eyzies De Tayac ","popup":"","link":"0","blank":"1","icon":"","created":1557995132,"updated":-62169984000,"maps":["1"],"edit":false},{"id":"3597","lat":"47.255421","lng":"6.022454","name":"Biocoop La Canopee ","address":"C\/o Maillotte Didier ,25000,besancon ","popup":"","link":"0","blank":"1","icon":"","created":1557995132,"updated":-62169984000,"maps":["1"],"edit":false},{"id":"3598","lat":"46.901700","lng":"6.348650","name":"Biocoop Du Haut Doubs ","address":"9 Rue Arthur Bourdin,25300,pontarlier ","popup":"","link":"0","blank":"1","icon":"","created":1557995132,"updated":-62169984000,"maps":["1"],"edit":false},{"id":"3599","lat":"47.101648","lng":"5.874934","name":"Tri ","address":"Za La Blanchotte ,25440,quingey ","popup":"","link":"0","blank":"1","icon":"","created":1557995132,"updated":-62169984000,"maps":["1"],"edit":false},{"id":"3600","lat":"44.754558","lng":"5.368798","name":"March\u00e9 De Die ","address":"Tous Les 1er Samedi Du Mois,26150,die ","popup":"","link":"0","blank":"1","icon":"","created":1557995132,"updated":-62169984000,"maps":["1"],"edit":false},{"id":"3601","lat":"44.753297","lng":"5.370074","name":"Caf\u00e9 Th\u00e9\u00e2tre Andarta ","address":"57 R Emile Laurens,26150,die ","popup":"","link":"0","blank":"1","icon":"","created":1557995132,"updated":-62169984000,"maps":["1"],"edit":false},{"id":"3602","lat":"44.752213","lng":"5.374677","name":"La Carline ","address":"21 Rue Du Viaduc,26150,die ","popup":"","link":"0","blank":"1","icon":"","created":1557995132,"updated":-62169984000,"maps":["1"],"edit":false},{"id":"3603","lat":"45.065583","lng":"5.242207","name":"Alterbati ","address":"115 A Route De La Gare,26190,saint Nazaire En Royans ","popup":"","link":"0","blank":"1","icon":"","created":1557995132,"updated":-62169984000,"maps":["1"],"edit":false},{"id":"3604","lat":"44.727403","lng":"5.022435","name":"L Etincelle ","address":"10 Cours De Verdun,26400,crest ","popup":"","link":"0","blank":"1","icon":"","created":1557995133,"updated":-62169984000,"maps":["1"],"edit":false},{"id":"3605","lat":"44.967307","lng":"5.415230","name":"Recyclerie La Piste Recyclable ","address":"Le Village ,26420,la Chapelle En Vercors ","popup":"","link":"0","blank":"1","icon":"","created":1557995133,"updated":-62169984000,"maps":["1"],"edit":false},{"id":"3606","lat":"44.610633","lng":"4.845825","name":"Sarl Au Plus Pre ","address":"C\/o Sylvette Neylau ,26740,la Laupie ","popup":"","link":"0","blank":"1","icon":"","created":1557995133,"updated":-62169984000,"maps":["1"],"edit":false},{"id":"3607","lat":"49.024634","lng":"1.180504","name":"Biocoop Evreux ","address":"1 Rue Jacques Monod,27000,evreux ","popup":"","link":"0","blank":"1","icon":"","created":1557995133,"updated":-62169984000,"maps":["1"],"edit":false},{"id":"3608","lat":"49.092397","lng":"1.482708","name":"La Compagnie Des Livres ","address":"76 Rue D Albufera,27200,vernon ","popup":"","link":"0","blank":"1","icon":"","created":1557995133,"updated":-62169984000,"maps":["1"],"edit":false},{"id":"3609","lat":"49.228971","lng":"1.168073","name":"La Fringale Biocoop ","address":"1 Rue De La Mecanique,27400,louviers ","popup":"","link":"0","blank":"1","icon":"","created":1557995133,"updated":-62169984000,"maps":["1"],"edit":false},{"id":"3611","lat":"47.997514","lng":"-4.109590","name":"L'effet Papillon ","address":"22 R Douarnenez,29000,quimper ","popup":"","link":"0","blank":"1","icon":"","created":1557995133,"updated":-62169984000,"maps":["1"],"edit":false},{"id":"3612","lat":"47.979286","lng":"-4.102119","name":"Brin D Avoine Biocoop ","address":"5 Allee Kernenez,29000,quimper ","popup":"","link":"0","blank":"1","icon":"","created":1557995133,"updated":-62169984000,"maps":["1"],"edit":false},{"id":"3613","lat":"48.003800","lng":"-4.085325","name":"Quimper Biocoop ","address":"5 Allee De Trequeffelec,29000,quimper ","popup":"","link":"0","blank":"1","icon":"","created":1557995133,"updated":-62169984000,"maps":["1"],"edit":false},{"id":"3614","lat":"47.829085","lng":"-4.304419","name":"Biocoop Graine De Bio ","address":"C\/o Le Moiene ,29120,pont L Abbe ","popup":"","link":"0","blank":"1","icon":"","created":1557995133,"updated":-62169984000,"maps":["1"],"edit":false},{"id":"3616","lat":"47.038236","lng":"2.637825","name":"Kerbio Rive Droite ","address":"C\/o Cuigery Yann ,29200,brest ","popup":"","link":"0","blank":"1","icon":"","created":1557995133,"updated":-62169984000,"maps":["1"],"edit":false},{"id":"3617","lat":"48.338930","lng":"-4.714961","name":"Jardinerie Plaisible ","address":"1 Impasse Charles Martel,29217,plougonvelin ","popup":"","link":"0","blank":"1","icon":"","created":1557995133,"updated":-62169984000,"maps":["1"],"edit":false},{"id":"3618","lat":"48.689209","lng":"-4.158820","name":"La Ferme De Kerantosfal ","address":"Lieu-dit ,29233,cleder ","popup":"","link":"0","blank":"1","icon":"","created":1557995133,"updated":-62169984000,"maps":["1"],"edit":false},{"id":"3619","lat":"48.559984","lng":"-4.311181","name":"Prim Vert Biocoop ","address":"Croas Ar Rod ,29260,lesneven ","popup":"","link":"0","blank":"1","icon":"","created":1557995133,"updated":-62169984000,"maps":["1"],"edit":false},{"id":"3620","lat":"48.559984","lng":"-4.311181","name":"Douar Nevez Biocoop ","address":"Croas Ar Rod ,29260,lesneven ","popup":"","link":"0","blank":"1","icon":"","created":1557995133,"updated":-62169984000,"maps":["1"],"edit":false},{"id":"3621","lat":"48.274125","lng":"-3.580882","name":"Douar Nevez Biocoop ","address":"4 Rue Charles Le Goff,29270,carhaix ","popup":"","link":"0","blank":"1","icon":"","created":1557995133,"updated":-62169984000,"maps":["1"],"edit":false},{"id":"3622","lat":"47.867974","lng":"-3.592015","name":"Les 7 Epis Mellac","address":"Kervidanou 3,29300,mellac ","popup":"","link":"0","blank":"1","icon":"","created":1557995133,"updated":-62169984000,"maps":["1"],"edit":false},{"id":"3623","lat":"47.785318","lng":"-3.579502","name":"Le Relais Des Peintres ","address":"Route Du Pouldu ,29360,clohars Carnoet ","popup":"","link":"0","blank":"1","icon":"","created":1557995133,"updated":-62169984000,"maps":["1"],"edit":false},{"id":"3624","lat":"48.368065","lng":"-4.371740","name":"Biogastell Biocoop ","address":"45 Rue Fournier,29470,plougastel ","popup":"","link":"0","blank":"1","icon":"","created":1557995133,"updated":-62169984000,"maps":["1"],"edit":false},{"id":"3625","lat":"48.373706","lng":"-3.733781","name":"L'autre Rive ","address":"Restidiou Bras ,29690,berrien ","popup":"","link":"0","blank":"1","icon":"","created":1557995133,"updated":-62169984000,"maps":["1"],"edit":false},{"id":"3626","lat":"48.371815","lng":"-3.784880","name":"L Autre Rive ","address":"Ledret Marc ,29690,berrien ","popup":"","link":"0","blank":"1","icon":"","created":1557995133,"updated":-62169984000,"maps":["1"],"edit":false},{"id":"3627","lat":"48.041632","lng":"-4.489654","name":"Sarl Scop Roscudon ","address":"Le Safran ,29790,pont Croix ","popup":"","link":"0","blank":"1","icon":"","created":1557995133,"updated":-62169984000,"maps":["1"],"edit":false},{"id":"3628","lat":"48.589933","lng":"-4.590411","name":"Un Jardin Dans Ma Tete ","address":"Martine Jovion ,29870,landeda ","popup":"","link":"0","blank":"1","icon":"","created":1557995133,"updated":-62169984000,"maps":["1"],"edit":false},{"id":"3630","lat":"43.839103","lng":"4.359163","name":"Le Panier Gourmand ","address":"Les Halles - All\u00e9e Girofle ,30000,n\u00eemes ","popup":"","link":"0","blank":"1","icon":"","created":1557995133,"updated":-62169984000,"maps":["1"],"edit":false},{"id":"3633","lat":"43.824106","lng":"4.379958","name":"Biocoop La Marigoule ","address":"Centre Commercial Les 7 Collines,30000,nimes ","popup":"","link":"0","blank":"1","icon":"","created":1557995133,"updated":-62169984000,"maps":["1"],"edit":false},{"id":"3635","lat":"44.177960","lng":"4.616137","name":"Biocoop M\u00e8re Nature ","address":"Route De Saint Gervais ,30200,bagnols Sur Ceze ","popup":"","link":"0","blank":"1","icon":"","created":1557995133,"updated":-62169984000,"maps":["1"],"edit":false},{"id":"3636","lat":"44.041113","lng":"4.179851","name":"Bois De France ","address":"Roselyne Denijs ,30360,martignargues ","popup":"","link":"0","blank":"1","icon":"","created":1557995133,"updated":-62169984000,"maps":["1"],"edit":false},{"id":"3638","lat":"43.576203","lng":"1.348604","name":"La Ramee Biocoop ","address":"108-110 Avenue Du Marquisat,31170,tournefeuille ","popup":"","link":"0","blank":"1","icon":"","created":1557995133,"updated":-62169984000,"maps":["1"],"edit":false},{"id":"3639","lat":"43.646828","lng":"1.422110","name":"La Glanerie ","address":"37 Impasse De La Glaci\u00e8re,31200,toulouse ","popup":"","link":"0","blank":"1","icon":"","created":1557995133,"updated":-62169984000,"maps":["1"],"edit":false},{"id":"3641","lat":"43.464192","lng":"1.981437","name":"Le March\u00e9 Du Pic Vert ","address":"La Graverie ,31250,revel ","popup":"","link":"0","blank":"1","icon":"","created":1557995133,"updated":-62169984000,"maps":["1"],"edit":false},{"id":"3643","lat":"43.617281","lng":"1.454412","name":"Le Poin\u00e7onneur","address":"19 Bis Faubourg Bonnefoy,31500,toulouse ","popup":"","link":"","blank":"1","icon":"","created":1557995133,"updated":1599489209,"maps":["1"],"edit":false},{"id":"3644","lat":"43.656763","lng":"-0.074243","name":"Biocoop Bio Cominges ","address":"Zone Commerciale De Landorthe ,31800,landorthe ","popup":"","link":"0","blank":"1","icon":"","created":1557995133,"updated":-62169984000,"maps":["1"],"edit":false},{"id":"3645","lat":"43.657594","lng":"0.591500","name":"Biocoop Les Jardins D'augusta ","address":"52 Rue Du 8 Mai,32000,auch ","popup":"","link":"0","blank":"1","icon":"","created":1557995133,"updated":-62169984000,"maps":["1"],"edit":false},{"id":"3646","lat":"43.854060","lng":"0.100125","name":"La Lutscrampo D Eouso ","address":"La Capere ,32800,eauze ","popup":"","link":"0","blank":"1","icon":"","created":1557995133,"updated":-62169984000,"maps":["1"],"edit":false},{"id":"3647","lat":"44.832959","lng":"-0.573872","name":"Biocoop Pasteur ","address":"40 Cours Pasteur,33000,bordeaux ","popup":"","link":"0","blank":"1","icon":"","created":1557995133,"updated":-62169984000,"maps":["1"],"edit":false},{"id":"3648","lat":"44.866894","lng":"-0.679087","name":"Bio 33","address":"174 Rue De La Morandiere,33185,le Haillan ","popup":"","link":"0","blank":"1","icon":"","created":1557995133,"updated":-62169984000,"maps":["1"],"edit":false},{"id":"3649","lat":"45.306284","lng":"-0.937961","name":"La Maison D'artemis ","address":"68 Rue Jean Jacques Rousseau,33340,lesparre ","popup":"","link":"0","blank":"1","icon":"","created":1557995133,"updated":-62169984000,"maps":["1"],"edit":false},{"id":"3651","lat":"44.789079","lng":"-0.633242","name":"Bio Rempart ","address":"Magasin So Bio Pessac ,33600,pessac ","popup":"","link":"0","blank":"1","icon":"","created":1557995133,"updated":-62169984000,"maps":["1"],"edit":false},{"id":"3653","lat":"43.604335","lng":"3.873500","name":"La Boutique Des Ateliers ","address":"16 Avenue Clemenceau,34000,montpellier ","popup":"","link":"0","blank":"1","icon":"","created":1557995133,"updated":-62169984000,"maps":["1"],"edit":false},{"id":"3655","lat":"43.683997","lng":"3.587136","name":"Librairie Le Meilleur Des Mondes ","address":"14, Rue Mazel,34150,aniane ","popup":"","link":"0","blank":"1","icon":"","created":1557995133,"updated":-62169984000,"maps":["1"],"edit":false},{"id":"3656","lat":"43.282987","lng":"3.456702","name":"L'ephebio Biocoop ","address":"Ccial Les Portes Du Littoral ,34300,agde ","popup":"","link":"0","blank":"1","icon":"","created":1557995133,"updated":-62169984000,"maps":["1"],"edit":false},{"id":"3657","lat":"43.574809","lng":"3.939682","name":"Satoriz ","address":"Zone Commerciale Le Fenouillet ,34470,perols ","popup":"","link":"0","blank":"1","icon":"","created":1557995133,"updated":-62169984000,"maps":["1"],"edit":false},{"id":"3658","lat":"43.465675","lng":"3.691403","name":"Biocoop ","address":"Avenue De La Barri\u00e8re ,34540,balaruc-le-vieux ","popup":"","link":"0","blank":"1","icon":"","created":1557995133,"updated":-62169984000,"maps":["1"],"edit":false},{"id":"3659","lat":"43.607467","lng":"3.149978","name":"Ressourcerie Bon D\u00e9barras ","address":"12 Route De Saint Pons,34600,b\u00e9darieux ","popup":"","link":"0","blank":"1","icon":"","created":1557995133,"updated":-62169984000,"maps":["1"],"edit":false},{"id":"3660","lat":"43.654596","lng":"3.303212","name":"Cafe De La Place ","address":"6 Place Paul Vigne,34800,octon ","popup":"","link":"0","blank":"1","icon":"","created":1557995133,"updated":-62169984000,"maps":["1"],"edit":false},{"id":"3661","lat":"43.640448","lng":"3.934461","name":"L Aile Du Papillon ","address":"6 Bis Rue Des Pointes,34920,le Cres ","popup":"","link":"0","blank":"1","icon":"","created":1557995133,"updated":-62169984000,"maps":["1"],"edit":false},{"id":"3662","lat":"48.102258","lng":"-1.712084","name":"Biocoop Scarab\u00e9e De Cleunay ","address":"132, Rue Eug\u00e8ne Pottier,35000,rennes ","popup":"","link":"0","blank":"1","icon":"","created":1557995133,"updated":-62169984000,"maps":["1"],"edit":false},{"id":"3663","lat":"48.122755","lng":"-1.739771","name":"Magasin De Producteurs Brin D'herbe ","address":"Le Grand Chevill\u00e9 ,35132,vezin-le-coquet ","popup":"","link":"0","blank":"1","icon":"","created":1557995133,"updated":-62169984000,"maps":["1"],"edit":false},{"id":"3664","lat":"48.415109","lng":"-1.751973","name":"Biocoop Le Chat Biotte ","address":"Za Moulin Madame ,35270,combourg ","popup":"","link":"0","blank":"1","icon":"","created":1557995133,"updated":-62169984000,"maps":["1"],"edit":false},{"id":"3665","lat":"48.187442","lng":"-2.177231","name":"Biocoop Reine Des Pr\u00e9s ","address":"Za Du Maupas ,35290,st M\u00e9en Le Grand ","popup":"","link":"0","blank":"1","icon":"","created":1557995133,"updated":-62169984000,"maps":["1"],"edit":false},{"id":"3666","lat":"47.899914","lng":"-1.607563","name":"Prima Fred Et Laure ","address":"Passer Un Coup De Fil Pour Les Horaires ,35320,le Sel De Bretagne ","popup":"","link":"0","blank":"1","icon":"","created":1557995133,"updated":-62169984000,"maps":["1"],"edit":false},{"id":"3667","lat":"48.112873","lng":"-1.608761","name":"Biocoop Scarabee Cesson ","address":"12 Avenue Des Peupliers,35510,cesson Sevigne ","popup":"","link":"0","blank":"1","icon":"","created":1557995133,"updated":-62169984000,"maps":["1"],"edit":false},{"id":"3668","lat":"47.660752","lng":"-2.077445","name":"Biocoop Le Heron Bleu ","address":"51 Rue De La Chataigneraie,35600,redon ","popup":"","link":"0","blank":"1","icon":"","created":1557995133,"updated":-62169984000,"maps":["1"],"edit":false},{"id":"3669","lat":"48.138388","lng":"-1.690783","name":"Biocoop Scarabe St Gregoire ","address":"8 Rue De La Cerisaie,35760,st Gregoire ","popup":"","link":"0","blank":"1","icon":"","created":1557995133,"updated":-62169984000,"maps":["1"],"edit":false},{"id":"3670","lat":"48.193912","lng":"-1.831979","name":"Le Clic Des Champs - Www.leclicdeschamps.com ","address":"Rue De La Fontaine ,35850,parthenay De Bretagne ","popup":"","link":"0","blank":"1","icon":"","created":1557995133,"updated":-62169984000,"maps":["1"],"edit":false},{"id":"3671","lat":"46.580698","lng":"1.987379","name":"Stand Pot'dvache ","address":"March\u00e9 De La Ch\u00e2tre ,36400,la Ch\u00e2tre ","popup":"","link":"0","blank":"1","icon":"","created":1557995133,"updated":-62169984000,"maps":["1"],"edit":false},{"id":"3672","lat":"47.378094","lng":"0.695004","name":"Cr\u00e9-sol ","address":"P\u00e9pini\u00e8re D'entreprise Du Sanitas, Rez De Chauss\u00e9e ,37000,tours ","popup":"","link":"0","blank":"1","icon":"","created":1557995133,"updated":-62169984000,"maps":["1"],"edit":false},{"id":"3673","lat":"47.393505","lng":"0.682046","name":"Librairie Ghimel ","address":"24 Rue Du Change,37000,tours ","popup":"","link":"0","blank":"1","icon":"","created":1557995133,"updated":-62169984000,"maps":["1"],"edit":false},{"id":"3674","lat":"47.385414","lng":"0.692056","name":"Coop Nature ","address":"17 Rue Chalmel,37000,tours ","popup":"","link":"0","blank":"1","icon":"","created":1557995133,"updated":-62169984000,"maps":["1"],"edit":false},{"id":"3675","lat":"47.361322","lng":"0.650857","name":"Panser Nature ","address":"C\/o Provost Michel ,37300,joue Les Tours ","popup":"","link":"0","blank":"1","icon":"","created":1557995133,"updated":-62169984000,"maps":["1"],"edit":false},{"id":"3676","lat":"47.555734","lng":"0.309221","name":"Le Pain D'audrey ","address":"Le Haut Aunais ,37330,ch\u00e2teau-la-valli\u00e8re ","popup":"","link":"0","blank":"1","icon":"","created":1557995133,"updated":-62169984000,"maps":["1"],"edit":false},{"id":"3677","lat":"47.438098","lng":"0.638775","name":"Salon De Coiffure D'agathe ","address":"53 Rue Nationale,37390,la Membrolle Sur Choisille ","popup":"","link":"0","blank":"1","icon":"","created":1557995133,"updated":-62169984000,"maps":["1"],"edit":false},{"id":"3678","lat":"47.171340","lng":"0.242499","name":"L'an Vert Du Panier - Magasin Biocoop ","address":"Route De Tours ,37500,chinon ","popup":"","link":"0","blank":"1","icon":"","created":1557995133,"updated":-62169984000,"maps":["1"],"edit":false},{"id":"3680","lat":"45.184762","lng":"5.709869","name":"Caf\u00e9 V\u00e9lo ","address":"59 Rue Nicolas Chorier,38000,grenoble ","popup":"","link":"0","blank":"1","icon":"","created":1557995133,"updated":-62169984000,"maps":["1"],"edit":false},{"id":"3681","lat":"45.185776","lng":"5.712389","name":"Casabio Chorier ","address":"32 Rue Nicolas Chorier,38000,grenoble ","popup":"","link":"0","blank":"1","icon":"","created":1557995133,"updated":-62169984000,"maps":["1"],"edit":false},{"id":"3682","lat":"45.169542","lng":"5.714038","name":"Casabio ","address":"214 Cours De La Liberation,38000,grenoble ","popup":"","link":"0","blank":"1","icon":"","created":1557995133,"updated":-62169984000,"maps":["1"],"edit":false},{"id":"3684","lat":"45.170159","lng":"5.740039","name":"Biocoop Malherbes ","address":"114 Avenue Jean Perrot,38100,grenoble ","popup":"","link":"0","blank":"1","icon":"","created":1557995133,"updated":-62169984000,"maps":["1"],"edit":false},{"id":"3685","lat":"45.565196","lng":"5.448743","name":"March\u00e9 De La Tour Du Pin ","address":"Place Carnot Et Place Prunelle ,38110,la Tour Du Pin ","popup":"","link":"0","blank":"1","icon":"","created":1557995133,"updated":-62169984000,"maps":["1"],"edit":false},{"id":"3686","lat":"45.153217","lng":"5.697470","name":"Satoriz Comboires ","address":"2 Rue Des Montagnes De Lans,38130,echirolles ","popup":"","link":"0","blank":"1","icon":"","created":1557995133,"updated":-62169984000,"maps":["1"],"edit":false},{"id":"3687","lat":"45.142768","lng":"5.294152","name":"Biocoop Saint Marcelin ","address":"Zone Artisanale Gloriette ,38160,chatte ","popup":"","link":"0","blank":"1","icon":"","created":1557995133,"updated":-62169984000,"maps":["1"],"edit":false},{"id":"3688","lat":"45.206601","lng":"5.763817","name":"Restaurant La Balade Des Joyeux Marmitons ","address":"18 Rue Des Aiguinards,38240,meylan ","popup":"","link":"0","blank":"1","icon":"","created":1557995133,"updated":-62169984000,"maps":["1"],"edit":false},{"id":"3689","lat":"45.069917","lng":"5.551628","name":"Boulangerie La Boule D'antan ","address":"50, Rue Vaucanson,38250,villard De Lans ","popup":"","link":"0","blank":"1","icon":"","created":1557995133,"updated":-62169984000,"maps":["1"],"edit":false},{"id":"3690","lat":"44.822949","lng":"5.639959","name":"Sel Du Trieves ","address":"C\/o Catherine Albert ,38930,clelles ","popup":"","link":"0","blank":"1","icon":"","created":1557995133,"updated":-62169984000,"maps":["1"],"edit":false},{"id":"3691","lat":"46.671336","lng":"5.568434","name":"Biocoop En Vie Bio Sarl ","address":"22 Avenue Camille Prost,39000,lons Le Saunier ","popup":"","link":"0","blank":"1","icon":"","created":1557995133,"updated":-62169984000,"maps":["1"],"edit":false},{"id":"3692","lat":"46.380798","lng":"5.823336","name":"La Vie Claire Lamana Bio ","address":"Za Etables ,39200,saint Claude ","popup":"","link":"0","blank":"1","icon":"","created":1557995133,"updated":-62169984000,"maps":["1"],"edit":false},{"id":"3693","lat":"46.834611","lng":"5.700773","name":"Association De Lute Contre Le Gaspillage ","address":"Za Les Perch\u00e9s ,39800,poligny ","popup":"","link":"0","blank":"1","icon":"","created":1557995133,"updated":-62169984000,"maps":["1"],"edit":false},{"id":"3694","lat":"43.710639","lng":"-0.835856","name":"Doman Chalosse Vivante ","address":"C\/o Lucas Jean Claude ,40380,montfort En Chalosse ","popup":"","link":"0","blank":"1","icon":"","created":1557995133,"updated":-62169984000,"maps":["1"],"edit":false},{"id":"3695","lat":"43.711176","lng":"-0.837947","name":"Le Comptoir Bl\u00e9s ","address":"7, Grand Rue,40380,montfort En Chalosse ","popup":"","link":"0","blank":"1","icon":"","created":1557995133,"updated":-62169984000,"maps":["1"],"edit":false},{"id":"3696","lat":"43.730430","lng":"-1.048598","name":"Biotinel ","address":"768 Avenue Du Marechal Foch,40990,st Paul Les Dax ","popup":"","link":"0","blank":"1","icon":"","created":1557995133,"updated":-62169984000,"maps":["1"],"edit":false},{"id":"3697","lat":"43.730430","lng":"-1.048598","name":"Biotinel ","address":"768 Av Du Mar\u00e9chal Foch,40990,saint Paul Les Dax ","popup":"","link":"0","blank":"1","icon":"","created":1557995133,"updated":-62169984000,"maps":["1"],"edit":false},{"id":"3698","lat":"47.598150","lng":"1.335913","name":"L Epi Vert ","address":"27 Rue De Flandres,41000,blois ","popup":"","link":"0","blank":"1","icon":"","created":1557995133,"updated":-62169984000,"maps":["1"],"edit":false},{"id":"3699","lat":"45.438013","lng":"4.391219","name":"Librairie Lune Et L'autre ","address":"19, Rue Pierre B\u00e9rard,42000,st Etienne ","popup":"","link":"0","blank":"1","icon":"","created":1557995133,"updated":-62169984000,"maps":["1"],"edit":false},{"id":"3702","lat":"45.623823","lng":"4.122732","name":"Biocoop Forez Bio ","address":"C\/o Vergiat Daniel ,42600,savigneux ","popup":"","link":"0","blank":"1","icon":"","created":1557995133,"updated":-62169984000,"maps":["1"],"edit":false},{"id":"3703","lat":"45.050809","lng":"3.893138","name":"Biocoop Echo Nature ","address":"34 Route De Roderie,43000,aiguilhe ","popup":"","link":"0","blank":"1","icon":"","created":1557995133,"updated":-62169984000,"maps":["1"],"edit":false},{"id":"3704","lat":"45.113186","lng":"4.291502","name":"Coeur D Artichaut ","address":"22 Rue De Saint Agreve,43190,tence ","popup":"","link":"0","blank":"1","icon":"","created":1557995133,"updated":-62169984000,"maps":["1"],"edit":false},{"id":"3705","lat":"47.228233","lng":"-1.541634","name":"Boulangerie Bio Catherine ","address":"122 Rue Du G\u00e9n\u00e9ral Buat,44000,nantes ","popup":"","link":"0","blank":"1","icon":"","created":1557995133,"updated":-62169984000,"maps":["1"],"edit":false},{"id":"3706","lat":"47.220292","lng":"-1.549044","name":"Boutik Naturo ","address":"84 Rue Mar\u00e9chal Joffre,44000,nantes ","popup":"","link":"0","blank":"1","icon":"","created":1557995133,"updated":-62169984000,"maps":["1"],"edit":false},{"id":"3707","lat":"47.204184","lng":"-1.550517","name":"Horizon Vert ","address":"17 Boulevard Gustave Roch,44000,nantes ","popup":"","link":"0","blank":"1","icon":"","created":1557995133,"updated":-62169984000,"maps":["1"],"edit":false},{"id":"3708","lat":"47.220292","lng":"-1.549044","name":"La Boutik Naturo ","address":"84 Rue Mar\u00e9chal Joffre,44000,nantes ","popup":"","link":"0","blank":"1","icon":"","created":1557995133,"updated":-62169984000,"maps":["1"],"edit":false},{"id":"3709","lat":"47.217694","lng":"-1.555236","name":"\u00d4 Bocal - Boutique De Vrac ","address":"3 Rue De L'h\u00f4tel De Ville,44000,nantes ","popup":"","link":"0","blank":"1","icon":"","created":1557995133,"updated":-62169984000,"maps":["1"],"edit":false},{"id":"3710","lat":"47.221922","lng":"-1.525828","name":"Gase De Chips ","address":"4 Rue Bellier,44000,nantes ","popup":"","link":"0","blank":"1","icon":"","created":1557995133,"updated":-62169984000,"maps":["1"],"edit":false},{"id":"3711","lat":"47.721999","lng":"-1.376769","name":"Restaurant Les Mets Tiss\u00e9s ","address":"21 B Rue De La Vernisserie,44110,chateubriand ","popup":"","link":"0","blank":"1","icon":"","created":1557995133,"updated":-62169984000,"maps":["1"],"edit":false},{"id":"3712","lat":"47.714766","lng":"-1.363373","name":"March\u00e9 Du Mercredi Matin ","address":"Patrick Peres ,44110,ch\u00e2teaubriant ","popup":"","link":"0","blank":"1","icon":"","created":1557995133,"updated":-62169984000,"maps":["1"],"edit":false},{"id":"3713","lat":"47.375351","lng":"-1.194986","name":"Saveur Nature Biocoop ","address":"104 Rue Du Bocage,44150,st Geron ","popup":"","link":"0","blank":"1","icon":"","created":1557995133,"updated":-62169984000,"maps":["1"],"edit":false},{"id":"3714","lat":"47.371486","lng":"-1.200332","name":"Le Pre Au Vert ","address":"Route De Nort Sur Erdre ,44150,st Gereon ","popup":"","link":"0","blank":"1","icon":"","created":1557995133,"updated":-62169984000,"maps":["1"],"edit":false},{"id":"3715","lat":"47.204049","lng":"-1.541443","name":"Horizon Vert ","address":"Ile Beaulieu, ,44200,nantes ","popup":"","link":"0","blank":"1","icon":"","created":1557995133,"updated":-62169984000,"maps":["1"],"edit":false},{"id":"3716","lat":"47.628763","lng":"-1.833006","name":"Bar Le Tempo ","address":"Rue De L'\u00e9glise ,44290,gu\u00e9men\u00e9-pensao ","popup":"","link":"0","blank":"1","icon":"","created":1557995133,"updated":-62169984000,"maps":["1"],"edit":false},{"id":"3717","lat":"47.624837","lng":"-1.750602","name":"Association Recycle Et Don ","address":"2 Rue De La Mairie,44290,conquereuil ","popup":"","link":"0","blank":"1","icon":"","created":1557995133,"updated":-62169984000,"maps":["1"],"edit":false},{"id":"3718","lat":"47.048266","lng":"-1.634703","name":"Biocoop Du Lac ","address":"Za Moulin De La Chauss\u00e9e ,44310,saint Philbert De Grand Lieu ","popup":"","link":"0","blank":"1","icon":"","created":1557995133,"updated":-62169984000,"maps":["1"],"edit":false},{"id":"3719","lat":"47.036078","lng":"-1.641506","name":"\u00d4 Saisons ","address":"10 Place De L\u2019\u00e9glise,44310,saint Philbert De Grand Lieu ","popup":"","link":"0","blank":"1","icon":"","created":1557995133,"updated":-62169984000,"maps":["1"],"edit":false},{"id":"3720","lat":"47.030713","lng":"-1.545854","name":"La Ferme De Rubl\u00e9 ","address":"Rubl\u00e9 ,44310,saint Colomban ","popup":"","link":"0","blank":"1","icon":"","created":1557995133,"updated":-62169984000,"maps":["1"],"edit":false},{"id":"3721","lat":"47.245280","lng":"-1.933676","name":"L'epicerie Frossetaine ","address":"4 Rue De La Mairie,44320,frossay ","popup":"","link":"0","blank":"1","icon":"","created":1557995133,"updated":-62169984000,"maps":["1"],"edit":false},{"id":"3722","lat":"47.184864","lng":"-1.587718","name":"Atelier-boutique Safishop ","address":"4 Impasse Des Petits Pav\u00e9s,44340,bouguenais ","popup":"","link":"0","blank":"1","icon":"","created":1557995133,"updated":-62169984000,"maps":["1"],"edit":false},{"id":"3723","lat":"47.196215","lng":"-1.566215","name":"Ressourcerie De L'\u00eele ","address":"90 Rue De La Basse \u00ceLe,44400,rez\u00e9 ","popup":"","link":"0","blank":"1","icon":"","created":1557995133,"updated":-62169984000,"maps":["1"],"edit":false},{"id":"3724","lat":"47.197542","lng":"-1.325459","name":"Sarl Scop Pain Virgule ","address":"Za Les Landes De La Bossardiere ,44430,le Landereau ","popup":"","link":"0","blank":"1","icon":"","created":1557995133,"updated":-62169984000,"maps":["1"],"edit":false},{"id":"3726","lat":"47.275045","lng":"-2.440921","name":"Yuki Bio ","address":"Rue De Cornen ,44510,le Pouliguen ","popup":"","link":"0","blank":"1","icon":"","created":1557995133,"updated":-62169984000,"maps":["1"],"edit":false},{"id":"3727","lat":"47.277322","lng":"-2.212921","name":"Librairie L\u2019embarcad\u00e8re ","address":"41, Avenue De La R\u00e9publique,44600,saint-nazaire ","popup":"","link":"0","blank":"1","icon":"","created":1557995133,"updated":-62169984000,"maps":["1"],"edit":false},{"id":"3728","lat":"47.901451","lng":"1.901215","name":"Artisans Du Monde ","address":"5 Rue Des Carmes,45000,orl\u00e9ans ","popup":"","link":"0","blank":"1","icon":"","created":1557995133,"updated":-62169984000,"maps":["1"],"edit":false},{"id":"3730","lat":"47.540314","lng":"2.661510","name":"Auberge Le Saint Loup ","address":"25 Grande Rue,45360,cernoy En Berry ","popup":"","link":"0","blank":"1","icon":"","created":1557995133,"updated":-62169984000,"maps":["1"],"edit":false},{"id":"3731","lat":"47.683570","lng":"2.632486","name":"Librairie Au Fil Des Mots ","address":"14 Quai Joffre,45500,gien ","popup":"","link":"0","blank":"1","icon":"","created":1557995133,"updated":-62169984000,"maps":["1"],"edit":false},{"id":"3732","lat":"44.446739","lng":"1.443828","name":"Libraitheque \"Le Droit \u00e0 La Paresse\" ","address":"68, Rue Louise Michel (Ex Saint-james),46000,cahors ","popup":"","link":"0","blank":"1","icon":"","created":1557995133,"updated":-62169984000,"maps":["1"],"edit":false},{"id":"3733","lat":"44.258562","lng":"0.364495","name":"Biocoop Gaia ","address":"C\/o Kerremans Harry ,47130,port St Marie ","popup":"","link":"0","blank":"1","icon":"","created":1557995133,"updated":-62169984000,"maps":["1"],"edit":false},{"id":"3734","lat":"44.517679","lng":"3.502926","name":"Biocoop La Claire Fontaine ","address":"16 Boulevard Britexte,48000,mende ","popup":"","link":"0","blank":"1","icon":"","created":1557995133,"updated":-62169984000,"maps":["1"],"edit":false},{"id":"3735","lat":"44.319883","lng":"3.599076","name":"Bio Jour Association ","address":"C\/o Rondet Maryline ,48400,florac ","popup":"","link":"0","blank":"1","icon":"","created":1557995133,"updated":-62169984000,"maps":["1"],"edit":false},{"id":"3736","lat":"47.484480","lng":"-0.533993","name":"Biocoop Caba ","address":"122 Rue De La Chalouere,49100,angers ","popup":"","link":"0","blank":"1","icon":"","created":1557995133,"updated":-62169984000,"maps":["1"],"edit":false},{"id":"3737","lat":"47.616866","lng":"-0.468124","name":"La Boutique Bio ","address":"37 Rue D'anjou,49125,tierce ","popup":"","link":"0","blank":"1","icon":"","created":1557995133,"updated":-62169984000,"maps":["1"],"edit":false},{"id":"3738","lat":"47.439656","lng":"-0.503687","name":"Terre & Terroirs ","address":"57 Avenue Jean Boutton,49130,les Ponts De C\u00e9 ","popup":"","link":"0","blank":"1","icon":"","created":1557995133,"updated":-62169984000,"maps":["1"],"edit":false},{"id":"3739","lat":"47.515064","lng":"-0.081256","name":"Abitabio ","address":"La Grande Planche ,49150,boce ","popup":"","link":"0","blank":"1","icon":"","created":1557995133,"updated":-62169984000,"maps":["1"],"edit":false},{"id":"3740","lat":"47.258710","lng":"-0.076174","name":"Epicerie Vrac De Saumur ","address":"27 Rue Dacier,49400,saumur ","popup":"","link":"0","blank":"1","icon":"","created":1557995133,"updated":-62169984000,"maps":["1"],"edit":false},{"id":"3741","lat":"47.399938","lng":"-0.531411","name":"Caba Biocoop Murs Erigne ","address":"34 Route De Cholet,49610,murs Erigne ","popup":"","link":"0","blank":"1","icon":"","created":1557995133,"updated":-62169984000,"maps":["1"],"edit":false},{"id":"3742","lat":"47.493458","lng":"-0.376266","name":"Amap De La Goutte D Eau ","address":"13 Route De L Etang Les Dublieres,49630,corne ","popup":"","link":"0","blank":"1","icon":"","created":1557995133,"updated":-62169984000,"maps":["1"],"edit":false},{"id":"3743","lat":"49.033710","lng":"-1.455075","name":"Tri-tout Solidaire Du Pays De Coutances ","address":"14 Rue Du Haut Mesnil,50200,st Pierre De Coutances ","popup":"","link":"0","blank":"1","icon":"","created":1557995133,"updated":-62169984000,"maps":["1"],"edit":false},{"id":"3744","lat":"49.610192","lng":"-1.646938","name":"Biocoop Le Rabio ","address":"Za Du Pont De Martinvast ,50690,martinvast ","popup":"","link":"0","blank":"1","icon":"","created":1557995133,"updated":-62169984000,"maps":["1"],"edit":false},{"id":"3745","lat":"48.967514","lng":"4.363899","name":"Biocoop Initiative Bio ","address":"17 Av G\u00e9n Sarrail,51000,chalons En Champagne ","popup":"","link":"0","blank":"1","icon":"","created":1557995133,"updated":-62169984000,"maps":["1"],"edit":false},{"id":"3746","lat":"48.077697","lng":"-0.800153","name":"Biocoop Mayenne Bio Soleil ","address":"8 Rue Bir Hakeim,53000,laval ","popup":"","link":"0","blank":"1","icon":"","created":1557995133,"updated":-62169984000,"maps":["1"],"edit":false},{"id":"3747","lat":"48.302285","lng":"-0.611819","name":"Mayenne Biosoleil Biocoop ","address":"49 Boulevard Lucien De Montigny,53100,mayenne ","popup":"","link":"0","blank":"1","icon":"","created":1557995133,"updated":-62169984000,"maps":["1"],"edit":false},{"id":"3748","lat":"47.827120","lng":"-0.706712","name":"Librairie M'lire ","address":"Place Paul Doumer ,53200,chateau Gontier ","popup":"","link":"0","blank":"1","icon":"","created":1557995133,"updated":-62169984000,"maps":["1"],"edit":false},{"id":"3749","lat":"47.838085","lng":"-0.690107","name":"Mayenne Biosoleil Aze ","address":"2 Rue Des Ailleres,53200,aze ","popup":"","link":"0","blank":"1","icon":"","created":1557995133,"updated":-62169984000,"maps":["1"],"edit":false},{"id":"3750","lat":"47.824006","lng":"-0.898454","name":"Caf\u00e9-epicerie Du Poms ","address":"Grande Rue ,53400,pommerieux ","popup":"","link":"0","blank":"1","icon":"","created":1557995133,"updated":-62169984000,"maps":["1"],"edit":false},{"id":"3751","lat":"48.682272","lng":"6.203225","name":"Biocoop Le Goupil Vert ","address":"34 38 Rue Marcel Brot,54000,nancy ","popup":"","link":"0","blank":"1","icon":"","created":1557995133,"updated":-62169984000,"maps":["1"],"edit":false},{"id":"3752","lat":"48.653115","lng":"6.179914","name":"L Eau Vive ","address":"12 Rue Roberval,54500,vandoeuvre Les Nancy ","popup":"","link":"0","blank":"1","icon":"","created":1557995133,"updated":-62169984000,"maps":["1"],"edit":false},{"id":"3755","lat":"47.982648","lng":"-2.628453","name":"La Grange Paysanne De L'oust ","address":"La Tertraie ,56120,lanouee ","popup":"","link":"0","blank":"1","icon":"","created":1557995133,"updated":-62169984000,"maps":["1"],"edit":false},{"id":"3756","lat":"47.566092","lng":"-2.503575","name":"Biocoop Le Panier Bio ","address":"Nadege Le Roux ,56190,muzillac ","popup":"","link":"0","blank":"1","icon":"","created":1557995133,"updated":-62169984000,"maps":["1"],"edit":false},{"id":"3757","lat":"48.058259","lng":"-2.949191","name":"Biocoop Callune ","address":"26 Rue De Lattre De Tassigny,56300,pontivy ","popup":"","link":"0","blank":"1","icon":"","created":1557995133,"updated":-62169984000,"maps":["1"],"edit":false},{"id":"3758","lat":"47.546519","lng":"-2.725013","name":"Gaec De Kervail ","address":"Didier Gounil ,56370,sarzeau ","popup":"","link":"0","blank":"1","icon":"","created":1557995133,"updated":-62169984000,"maps":["1"],"edit":false},{"id":"3759","lat":"47.664807","lng":"-3.007893","name":"Sarl Alre Bio ","address":"8 Rue D'irlande,56400,auray ","popup":"","link":"0","blank":"1","icon":"","created":1557995133,"updated":-62169984000,"maps":["1"],"edit":false},{"id":"3760","lat":"47.669921","lng":"-3.185600","name":"La Belz Saison ","address":"17 Bis Rue Guttenberg,56550,belz ","popup":"","link":"0","blank":"1","icon":"","created":1557995133,"updated":-62169984000,"maps":["1"],"edit":false},{"id":"3761","lat":"47.777065","lng":"-3.356012","name":"Les 7 \u00e9Pis","address":"Rue Jean Marie Tjibaou ,56600,lanester ","popup":"","link":"0","blank":"1","icon":"","created":1557995133,"updated":-62169984000,"maps":["1"],"edit":false},{"id":"3762","lat":"47.920006","lng":"-2.279987","name":"Le Champ Commun Sarl Coop ","address":"1 Rue Du Clos Bily,56800,augan ","popup":"","link":"0","blank":"1","icon":"","created":1557995133,"updated":-62169984000,"maps":["1"],"edit":false},{"id":"3763","lat":"49.117935","lng":"6.180266","name":"La Boussole ","address":"2 Rue Des Allemands,57000,metz ","popup":"","link":"0","blank":"1","icon":"","created":1557995133,"updated":-62169984000,"maps":["1"],"edit":false},{"id":"3764","lat":"49.141603","lng":"6.122888","name":"Terre Et Partage ","address":"C\/o Frey Guy ,57050,lorry Les Metz ","popup":"","link":"0","blank":"1","icon":"","created":1557995133,"updated":-62169984000,"maps":["1"],"edit":false},{"id":"3765","lat":"48.886113","lng":"6.393131","name":"Magasin Proxy ","address":"5 Rue Du General Nassoy,57590,delme ","popup":"","link":"0","blank":"1","icon":"","created":1557995133,"updated":-62169984000,"maps":["1"],"edit":false},{"id":"3766","lat":"47.453074","lng":"3.534151","name":"La Graineterie ","address":"Maison Citoyenne ,58500,clamecy ","popup":"","link":"0","blank":"1","icon":"","created":1557995133,"updated":-62169984000,"maps":["1"],"edit":false},{"id":"3767","lat":"50.622929","lng":"3.060516","name":"L Epicerie Equitable ","address":"Halles De Wazemmes ,59000,lille ","popup":"","link":"0","blank":"1","icon":"","created":1557995133,"updated":-62169984000,"maps":["1"],"edit":false},{"id":"3768","lat":"50.632755","lng":"3.063398","name":"Cafe Citoyen ","address":"7 Place Du Vieux Marche Aux Chevaux,59000,lille ","popup":"","link":"0","blank":"1","icon":"","created":1557995133,"updated":-62169984000,"maps":["1"],"edit":false},{"id":"3769","lat":"50.689272","lng":"3.170693","name":"Restaurant La Baraka ","address":"20 Rue De S\u00e9bastopol,59100,roubaix ","popup":"","link":"0","blank":"1","icon":"","created":1557995133,"updated":-62169984000,"maps":["1"],"edit":false},{"id":"3770","lat":"50.539280","lng":"2.983937","name":"Pouce Et Nature ","address":"1 Rue Jeanne Oliger,59147,gondecourt ","popup":"","link":"0","blank":"1","icon":"","created":1557995133,"updated":-62169984000,"maps":["1"],"edit":false},{"id":"3771","lat":"50.369122","lng":"3.532373","name":"Valenciennes Biocoop ","address":"22 Rue Ernest Macarez,59300,valenciennes ","popup":"","link":"0","blank":"1","icon":"","created":1557995133,"updated":-62169984000,"maps":["1"],"edit":false},{"id":"3772","lat":"50.126654","lng":"3.927777","name":"El Tout Bio ","address":"1 Route Prisse D Avenne,59440,avesnes Sur Helpe ","popup":"","link":"0","blank":"1","icon":"","created":1557995133,"updated":-62169984000,"maps":["1"],"edit":false},{"id":"3773","lat":"50.274824","lng":"3.972677","name":"Les Biomondes ","address":"Magasin Point Nature ,59600,maubeuge ","popup":"","link":"0","blank":"1","icon":"","created":1557995133,"updated":-62169984000,"maps":["1"],"edit":false},{"id":"3774","lat":"50.609764","lng":"3.164082","name":"Magasin Saveurs Et Saisons ","address":"270, Rue Des Fusill\u00e9s,59650,villeneuve D'ascq ","popup":"","link":"0","blank":"1","icon":"","created":1557995133,"updated":-62169984000,"maps":["1"],"edit":false},{"id":"3775","lat":"49.265061","lng":"2.490358","name":"Biocoop De Creil ","address":"1118 Avenue Du Tremblay,60100,creil ","popup":"","link":"0","blank":"1","icon":"","created":1557995133,"updated":-62169984000,"maps":["1"],"edit":false},{"id":"3777","lat":"48.428521","lng":"0.086306","name":"Le Badiane ","address":"143 Grande Rue,61000,alen\u00e7on ","popup":"","link":"0","blank":"1","icon":"","created":1557995133,"updated":-62169984000,"maps":["1"],"edit":false},{"id":"3778","lat":"48.748020","lng":"-0.569991","name":"Paniers Fl\u00e9riens ","address":"Amap ,61100,flers ","popup":"","link":"0","blank":"1","icon":"","created":1557995133,"updated":-62169984000,"maps":["1"],"edit":false},{"id":"3779","lat":"48.800159","lng":"0.153130","name":"Ferme De Permaculture D'ommeel ","address":"Loisel Cedric ,61160,ommeel ","popup":"","link":"0","blank":"1","icon":"","created":1557995133,"updated":-62169984000,"maps":["1"],"edit":false},{"id":"3780","lat":"48.434830","lng":"0.055276","name":"Biocoop Alen\u00e7on Bio ","address":"69 Rue D'alen\u00e7on,61250,conde-sur-sarthe ","popup":"","link":"0","blank":"1","icon":"","created":1557995133,"updated":-62169984000,"maps":["1"],"edit":false},{"id":"3781","lat":"48.330101","lng":"0.702496","name":"Le Relais St Germain ","address":"5 Place St Germain,61340,pr\u00e9aux-du-perche ","popup":"","link":"0","blank":"1","icon":"","created":1557995133,"updated":-62169984000,"maps":["1"],"edit":false},{"id":"3782","lat":"48.593089","lng":"-0.356774","name":"Nature Andaines ","address":"7 Av Thiers,61600,la Fert\u00e9 Mac\u00e9 ","popup":"","link":"0","blank":"1","icon":"","created":1557995133,"updated":-62169984000,"maps":["1"],"edit":false},{"id":"3783","lat":"50.371593","lng":"2.332010","name":"Artois Ternois R\u00e9cup\u00e9ration Emploi (Atre) ","address":"122 Rue De Canteraine,62130,st Pol Sur Ternoise ","popup":"","link":"0","blank":"1","icon":"","created":1557995133,"updated":-62169984000,"maps":["1"],"edit":false},{"id":"3784","lat":"50.332787","lng":"1.938563","name":"Association La Belle Verte ","address":"Francis Courbot ,62140,tortefontaine ","popup":"","link":"0","blank":"1","icon":"","created":1557995133,"updated":-62169984000,"maps":["1"],"edit":false},{"id":"3785","lat":"50.725121","lng":"1.603440","name":"Biocoop Opale Bio ","address":"17 Rue Edmond Rostand,62200,boulogne Sur Mer ","popup":"","link":"0","blank":"1","icon":"","created":1557995133,"updated":-62169984000,"maps":["1"],"edit":false},{"id":"3786","lat":"45.784200","lng":"3.101380","name":"Bio Auvergne ","address":"8 Rue De Niel,63100,clermont-ferrand ","popup":"","link":"0","blank":"1","icon":"","created":1557995133,"updated":-62169984000,"maps":["1"],"edit":false},{"id":"3787","lat":"45.927955","lng":"3.113870","name":"Cabinet Dentaire ","address":"5 Place De La R\u00e9publique,63200,saint-bonnet ","popup":"","link":"0","blank":"1","icon":"","created":1557995133,"updated":-62169984000,"maps":["1"],"edit":false},{"id":"3788","lat":"45.892785","lng":"3.114090","name":"Rayon Vert ","address":"26 Rue Marivaux,63200,riom ","popup":"","link":"0","blank":"1","icon":"","created":1557995133,"updated":-62169984000,"maps":["1"],"edit":false},{"id":"3789","lat":"45.894157","lng":"3.110248","name":"March\u00e9 De Riom Le Samedi Matin ","address":"Place De La F\u00e9d\u00e9ration ,63200,riom ","popup":"","link":"0","blank":"1","icon":"","created":1557995133,"updated":-62169984000,"maps":["1"],"edit":false},{"id":"3790","lat":"45.826080","lng":"3.152641","name":"Le Biau Jardin ","address":"Lieu Dit Moulin Du Roy ,63360,gerzat ","popup":"","link":"0","blank":"1","icon":"","created":1557995133,"updated":-62169984000,"maps":["1"],"edit":false},{"id":"3791","lat":"45.536473","lng":"3.396734","name":"Moulin De ","address":"Civadoux ,63490,saint-quentin-sur-sauxillanges ","popup":"","link":"0","blank":"1","icon":"","created":1557995133,"updated":-62169984000,"maps":["1"],"edit":false},{"id":"3792","lat":"45.550282","lng":"3.370393","name":"Magasin Citoyen ","address":"L'alternateur ,63490,sauxillanges ","popup":"","link":"0","blank":"1","icon":"","created":1557995133,"updated":-62169984000,"maps":["1"],"edit":false},{"id":"3793","lat":"45.631468","lng":"3.559188","name":"Fudo Editions ","address":"7 Rue De La Poste,63590,cunlhat ","popup":"","link":"0","blank":"1","icon":"","created":1557995133,"updated":-62169984000,"maps":["1"],"edit":false},{"id":"3795","lat":"43.480004","lng":"-1.556390","name":"Artisans Du Monde ","address":"10 Avenue Charles Floquet,64200,biarritz ","popup":"","link":"0","blank":"1","icon":"","created":1557995133,"updated":-62169984000,"maps":["1"],"edit":false},{"id":"3796","lat":"42.619094","lng":"2.424951","name":"Biocoop La Plantula ","address":"7 Rue De La Basse,66500,prades ","popup":"","link":"0","blank":"1","icon":"","created":1557995133,"updated":-62169984000,"maps":["1"],"edit":false},{"id":"3797","lat":"48.582356","lng":"7.765922","name":"Serpent Vert Strasbourg ","address":"37 Boulevard De La Victoire,67000,strasbourg ","popup":"","link":"0","blank":"1","icon":"","created":1557995133,"updated":-62169984000,"maps":["1"],"edit":false},{"id":"3798","lat":"48.578947","lng":"7.760034","name":"Ceaac ","address":"7 Rue De L'abreuvoir,67000,strasbourg ","popup":"","link":"0","blank":"1","icon":"","created":1557995133,"updated":-62169984000,"maps":["1"],"edit":false},{"id":"3799","lat":"48.539070","lng":"7.484240","name":"Aussit\u00f4t Dit, Aussit\u00f4t F\u00e9e ","address":"6 Reu Des Rochers,67120,molsheim ","popup":"","link":"0","blank":"1","icon":"","created":1557995133,"updated":-62169984000,"maps":["1"],"edit":false},{"id":"3800","lat":"48.906729","lng":"7.278754","name":"Le Panier Baladeur ","address":"C\/o Pey Jean Francois ,67290,struth ","popup":"","link":"0","blank":"1","icon":"","created":1557995133,"updated":-62169984000,"maps":["1"],"edit":false},{"id":"3801","lat":"48.608219","lng":"7.751226","name":"Serpent Vert Schiltigheim ","address":"9 Rue D Adelshoffen,67300,schiltigheim ","popup":"","link":"0","blank":"1","icon":"","created":1557995133,"updated":-62169984000,"maps":["1"],"edit":false},{"id":"3802","lat":"48.339414","lng":"7.685298","name":"Biolacte Durr ","address":"30 Chemin De L Allach,67860,boofzheim ","popup":"","link":"0","blank":"1","icon":"","created":1557995133,"updated":-62169984000,"maps":["1"],"edit":false},{"id":"3803","lat":"48.078881","lng":"7.365960","name":"Biocoop Sonnebluem ","address":"7 Rue Du Grillenbreit,68000,colmar ","popup":"","link":"0","blank":"1","icon":"","created":1557995133,"updated":-62169984000,"maps":["1"],"edit":false},{"id":"3804","lat":"48.081761","lng":"7.348026","name":"Boulangerie St Joseph ","address":"37 Rue Du Logelbach,68000,colmar ","popup":"","link":"0","blank":"1","icon":"","created":1557995133,"updated":-62169984000,"maps":["1"],"edit":false},{"id":"3805","lat":"48.089968","lng":"7.308294","name":" Biocoop Unis Vers Bio ","address":"36 Route D\u2019eguisheim,68040,ingersheim ","popup":"","link":"0","blank":"1","icon":"","created":1557995133,"updated":-62169984000,"maps":["1"],"edit":false},{"id":"3806","lat":"47.623110","lng":"7.238444","name":" Alt Bio - S\u2019nat\u00fcrhisla ","address":"28 Rue Des Boulangers,68130,altkirch ","popup":"","link":"0","blank":"1","icon":"","created":1557995133,"updated":-62169984000,"maps":["1"],"edit":false},{"id":"3807","lat":"47.885432","lng":"7.000510","name":"Saveurs Et Couleurs De La Montagne ","address":"Parc De Wesserling ,68470,husseren-wesserling ","popup":"","link":"0","blank":"1","icon":"","created":1557995133,"updated":-62169984000,"maps":["1"],"edit":false},{"id":"3808","lat":"48.230353","lng":"7.302426","name":"Marie Bihl Epicerie La Griotte ","address":"31 Rue Ste-anne,68590,thannenkirch ","popup":"","link":"0","blank":"1","icon":"","created":1557995133,"updated":-62169984000,"maps":["1"],"edit":false},{"id":"3809","lat":"47.941785","lng":"7.158957","name":" Vivarium Du Moulin ","address":"6 Rue Du Moulin,68610,lautenbach-zell ","popup":"","link":"0","blank":"1","icon":"","created":1557995133,"updated":-62169984000,"maps":["1"],"edit":false},{"id":"3810","lat":"48.146541","lng":"7.187181","name":" Cellier Des Montagnes ","address":"4 Route De L\u2019europe-hachimette,68650,lapoutroie ","popup":"","link":"0","blank":"1","icon":"","created":1557995133,"updated":-62169984000,"maps":["1"],"edit":false},{"id":"3811","lat":"45.751403","lng":"4.844729","name":"L Epicerie Equitable ","address":"78 Rue Montesquieu,69007,lyon ","popup":"","link":"0","blank":"1","icon":"","created":1557995133,"updated":-62169984000,"maps":["1"],"edit":false},{"id":"3813","lat":"45.753572","lng":"4.845836","name":"Librairie La Gryffe ","address":"5 Rue Sebastien Gryffe,69007,lyon ","popup":"","link":"0","blank":"1","icon":"","created":1557995133,"updated":-62169984000,"maps":["1"],"edit":false},{"id":"3815","lat":"45.774069","lng":"4.869924","name":"Biogone ","address":"31 Rue Gervais Bussiere,69100,villeurbanne ","popup":"","link":"0","blank":"1","icon":"","created":1557995133,"updated":-62169984000,"maps":["1"],"edit":false},{"id":"3816","lat":"45.766922","lng":"4.927084","name":"Prairial ","address":"10 Bd Des Droits De L Homme,69210,vaulx En Velin ","popup":"","link":"0","blank":"1","icon":"","created":1557995133,"updated":-62169984000,"maps":["1"],"edit":false},{"id":"3817","lat":"45.983904","lng":"4.712942","name":"Saveur Nature ","address":"459 Rue Fran\u00e7ois Giraud,69400,villefranche Sur Sa\u00f4ne ","popup":"","link":"0","blank":"1","icon":"","created":1557995133,"updated":-62169984000,"maps":["1"],"edit":false},{"id":"3818","lat":"45.719799","lng":"4.798196","name":"Eco Cr\u00e8che Brins D'\u00e9toiles ","address":"48 Rue Des C\u00e9lestins,69600,oullins ","popup":"","link":"0","blank":"1","icon":"","created":1557995133,"updated":-62169984000,"maps":["1"],"edit":false},{"id":"3819","lat":"45.711912","lng":"4.819982","name":"La Super Halle ","address":"105 Avenue Jean Jaur\u00e8s,69600,oullins ","popup":"","link":"0","blank":"1","icon":"","created":1557995133,"updated":-62169984000,"maps":["1"],"edit":false},{"id":"3820","lat":"45.711912","lng":"4.819982","name":"La Super Halle ","address":"105 Avenue Jean Jaur\u00e8s,69600,oullins ","popup":"","link":"0","blank":"1","icon":"","created":1557995133,"updated":-62169984000,"maps":["1"],"edit":false},{"id":"3821","lat":"45.707849","lng":"4.473583","name":"Etais - De Fil \u00e0 Fil ","address":"Rue Du Moulin Blanc ,69610,sainte Foy L\u2019argentiere ","popup":"","link":"0","blank":"1","icon":"","created":1557995133,"updated":-62169984000,"maps":["1"],"edit":false},{"id":"3822","lat":"45.936597","lng":"4.622824","name":"L'\u00e9picerie Des Colibris ","address":"Centre Bourg ,69620,theiz\u00e9 ","popup":"","link":"0","blank":"1","icon":"","created":1557995133,"updated":-62169984000,"maps":["1"],"edit":false},{"id":"3823","lat":"45.915895","lng":"4.584807","name":"L'\u00e9picerie Des Colibris ","address":"Bois D'oing ,69620,val D'oingt ","popup":"","link":"0","blank":"1","icon":"","created":1557995133,"updated":-62169984000,"maps":["1"],"edit":false},{"id":"3824","lat":"47.445311","lng":"5.593647","name":"Biomonde ","address":"Rue Picard - Zac Gray Sud ,70100,gray ","popup":"","link":"0","blank":"1","icon":"","created":1557995133,"updated":-62169984000,"maps":["1"],"edit":false},{"id":"3825","lat":"47.442940","lng":"5.589283","name":"Caf\u00e9 Val De Saone ","address":"1 Grande Rue,70100,gray ","popup":"","link":"0","blank":"1","icon":"","created":1557995133,"updated":-62169984000,"maps":["1"],"edit":false},{"id":"3826","lat":"47.287187","lng":"5.659810","name":"Les Paniers De La Patate ","address":"Grande Rue ,70140,montagney ","popup":"","link":"0","blank":"1","icon":"","created":1557995133,"updated":-62169984000,"maps":["1"],"edit":false},{"id":"3827","lat":"47.279120","lng":"5.564363","name":"O'ma Pizza ","address":"37 Grande Rue Pesmes,70140,pesmes ","popup":"","link":"0","blank":"1","icon":"","created":1557995133,"updated":-62169984000,"maps":["1"],"edit":false},{"id":"3828","lat":"47.338312","lng":"5.636273","name":"Les Bonnes Recettes ","address":"20 Rue Du Gal De Gaulle,70140,valay ","popup":"","link":"0","blank":"1","icon":"","created":1557995133,"updated":-62169984000,"maps":["1"],"edit":false},{"id":"3829","lat":"47.579033","lng":"6.769583","name":"La Vie Claire ","address":"8 Rue Marcel Paul \u2013 Zac En Salamon,70400,h\u00e9ricourt ","popup":"","link":"0","blank":"1","icon":"","created":1557995133,"updated":-62169984000,"maps":["1"],"edit":false},{"id":"3831","lat":"48.004208","lng":"0.198366","name":"Librairie Doucet ","address":"66 Avenue Du Gal De Gaulle,72000,le Mans ","popup":"","link":"0","blank":"1","icon":"","created":1557995133,"updated":-62169984000,"maps":["1"],"edit":false},{"id":"3832","lat":"48.005548","lng":"0.200697","name":"Librairie Thuard ","address":"24, Rue De L'\u00e9toile,72000,le Mans ","popup":"","link":"0","blank":"1","icon":"","created":1557995133,"updated":-62169984000,"maps":["1"],"edit":false},{"id":"3833","lat":"48.025121","lng":"0.237970","name":"Biocoop Le Fenouil ","address":"2 Rue Des Noisetiers,72190,sarge ","popup":"","link":"0","blank":"1","icon":"","created":1557995133,"updated":-62169984000,"maps":["1"],"edit":false},{"id":"3834","lat":"47.702215","lng":"-0.051437","name":"Alterre Native ","address":"4 All\u00e9e Des Futreaux,72200,la Fleche ","popup":"","link":"0","blank":"1","icon":"","created":1557995133,"updated":-62169984000,"maps":["1"],"edit":false},{"id":"3835","lat":"45.567533","lng":"5.933314","name":"Biocoop Casabio ","address":"26 Quai De La Rize,73000,chamb\u00e9ry ","popup":"","link":"0","blank":"1","icon":"","created":1557995133,"updated":-62169984000,"maps":["1"],"edit":false},{"id":"3836","lat":"45.717489","lng":"5.922129","name":"Biocoop Gr\u00e9sy Sur Aix ","address":"6 R Boucher Rupelle,73100,gr\u00e9sy Sur Aix ","popup":"","link":"0","blank":"1","icon":"","created":1557995133,"updated":-62169984000,"maps":["1"],"edit":false},{"id":"3837","lat":"45.751861","lng":"5.975292","name":"La Fruiti\u00e8re ","address":"Route Des Bauges ,73410,st Ours ","popup":"","link":"0","blank":"1","icon":"","created":1557995133,"updated":-62169984000,"maps":["1"],"edit":false},{"id":"3838","lat":"45.658638","lng":"5.912045","name":"Biocoop Drumettaz ","address":"All Des Erables ,73420,drumettaz Clarafond ","popup":"","link":"0","blank":"1","icon":"","created":1557995133,"updated":-62169984000,"maps":["1"],"edit":false},{"id":"3839","lat":"45.594950","lng":"5.770276","name":"L'\u00e9picerie Du Coing ","address":"75 Place Bourniau,73470,novalaise ","popup":"","link":"0","blank":"1","icon":"","created":1557995133,"updated":-62169984000,"maps":["1"],"edit":false},{"id":"3840","lat":"45.908619","lng":"6.124976","name":"Biocoop Aquarius Annecy ","address":"6 Rue Du 11eme Bca,74000,annecy ","popup":"","link":"0","blank":"1","icon":"","created":1557995133,"updated":-62169984000,"maps":["1"],"edit":false},{"id":"3841","lat":"45.899672","lng":"6.127784","name":"Le Lavoir - Caf\u00e9-laverie ","address":"2 Rue Camille Dunant,74000,annecy ","popup":"","link":"0","blank":"1","icon":"","created":1557995133,"updated":-62169984000,"maps":["1"],"edit":false},{"id":"3842","lat":"45.939169","lng":"6.122332","name":"Aquarius Pringy ","address":"95 Route D Annecy,74370,pringy ","popup":"","link":"0","blank":"1","icon":"","created":1557995133,"updated":-62169984000,"maps":["1"],"edit":false},{"id":"3843","lat":"45.875762","lng":"6.089850","name":"Biocoop Du Semnoz ","address":"12 Chemin De P\u00e9riaz,74600,seynod ","popup":"","link":"0","blank":"1","icon":"","created":1557995133,"updated":-62169984000,"maps":["1"],"edit":false},{"id":"3844","lat":"46.065944","lng":"6.311088","name":"Aquarius La Roche Sur Foron ","address":"2 Rue Perrine,74800,la Roche Sur Foron ","popup":"","link":"0","blank":"1","icon":"","created":1557995133,"updated":-62169984000,"maps":["1"],"edit":false},{"id":"3845","lat":"48.846816","lng":"2.341841","name":"Le Retour \u00e0 La Terre - Biocoop Rive Gauche ","address":"1, Rue Le Goff,75005,paris ","popup":"","link":"0","blank":"1","icon":"","created":1557995133,"updated":-62169984000,"maps":["1"],"edit":false},{"id":"3846","lat":"48.879725","lng":"2.363258","name":"Les Nouveaux Robinson ","address":"195, Rue Du Faubourg Saint-martin,75010,paris ","popup":"","link":"0","blank":"1","icon":"","created":1557995133,"updated":-62169984000,"maps":["1"],"edit":false},{"id":"3847","lat":"48.866171","lng":"2.370549","name":"Biocoop La R\u00e9publique ","address":"19 Avenue De La R\u00e9publique,75011,paris ","popup":"","link":"0","blank":"1","icon":"","created":1557995133,"updated":-62169984000,"maps":["1"],"edit":false},{"id":"3848","lat":"48.868005","lng":"2.372930","name":"Tierra Una ","address":"46 Rue De La Fontaine Au Roi,75011,paris ","popup":"","link":"0","blank":"1","icon":"","created":1557995133,"updated":-62169984000,"maps":["1"],"edit":false},{"id":"3849","lat":"48.857141","lng":"2.390712","name":"Le Retour \u00e0 La Terre - Biocoop Rive Droite ","address":"114 Avenue Philippe Auguste,75011,paris ","popup":"","link":"0","blank":"1","icon":"","created":1557995133,"updated":-62169984000,"maps":["1"],"edit":false},{"id":"3850","lat":"48.837774","lng":"2.399900","name":"Nouveaux Robinson ","address":"212, Avenue Daumesnil,75012,paris ","popup":"","link":"0","blank":"1","icon":"","created":1557995133,"updated":-62169984000,"maps":["1"],"edit":false},{"id":"3851","lat":"48.843685","lng":"2.389547","name":"Biocoop Paris 12\u00e8me","address":"47 Rue Jacques Hillairet,75012,paris ","popup":"","link":"0","blank":"1","icon":"","created":1557995133,"updated":-62169984000,"maps":["1"],"edit":false},{"id":"3852","lat":"48.844882","lng":"2.282008","name":"Tapovan ","address":"9 Rue Gutenberg,75015,paris ","popup":"","link":"0","blank":"1","icon":"","created":1557995133,"updated":-62169984000,"maps":["1"],"edit":false},{"id":"3853","lat":"48.885486","lng":"2.375363","name":"Canal Bio ","address":"46 Bis Quai De La Loire,75019,paris ","popup":"","link":"0","blank":"1","icon":"","created":1557995133,"updated":-62169984000,"maps":["1"],"edit":false},{"id":"3854","lat":"48.878602","lng":"2.371025","name":"Epicerie Kilogramme ","address":"10 Rue De Meaux,75019,paris ","popup":"","link":"0","blank":"1","icon":"","created":1557995133,"updated":-62169984000,"maps":["1"],"edit":false},{"id":"3856","lat":"49.441515","lng":"1.099530","name":"Faites-le Vous M\u00eame ","address":"192 Rue Eau De Robec,76000,rouen ","popup":"","link":"0","blank":"1","icon":"","created":1557995133,"updated":-62169984000,"maps":["1"],"edit":false},{"id":"3857","lat":"49.618345","lng":"0.748400","name":"La Planete Bleue Sarl ","address":"11 Avenue Foch,76190,yvetot ","popup":"","link":"0","blank":"1","icon":"","created":1557995133,"updated":-62169984000,"maps":["1"],"edit":false},{"id":"3858","lat":"49.924969","lng":"1.072138","name":"La Coop D'alb\u00e2tre ","address":"3 Bis, Rue De Coeur Couronn\u00e9,76200,dieppe ","popup":"","link":"0","blank":"1","icon":"","created":1557995133,"updated":-62169984000,"maps":["1"],"edit":false},{"id":"3859","lat":"49.474402","lng":"1.109613","name":"Biocoop Planete Bio Bois-guillaume ","address":"45 Rue Buffon,76230,bois-guillaume ","popup":"","link":"0","blank":"1","icon":"","created":1557995133,"updated":-62169984000,"maps":["1"],"edit":false},{"id":"3860","lat":"49.762225","lng":"0.375134","name":"Artisans Du Monde Fecamp ","address":"254 Avenue Jean Lorrain,76400,fecamp ","popup":"","link":"0","blank":"1","icon":"","created":1557995133,"updated":-62169984000,"maps":["1"],"edit":false},{"id":"3861","lat":"49.783546","lng":"0.540586","name":"Tapovan ","address":"Hameau D Anneville ,76540,sassetot Le Mauconduit ","popup":"","link":"0","blank":"1","icon":"","created":1557995133,"updated":-62169984000,"maps":["1"],"edit":false},{"id":"3862","lat":"49.900193","lng":"1.074475","name":"Biocoop Plan\u00e8te Bio ","address":"Chemin Des Vertus ,76550,saint-aubin Sur Scie ","popup":"","link":"0","blank":"1","icon":"","created":1557995133,"updated":-62169984000,"maps":["1"],"edit":false},{"id":"3863","lat":"48.948072","lng":"1.932101","name":"La Gerbe ","address":"Zac Du Petit Parc - 13 Rue Des Fontenelles,78920,ecquevilly ","popup":"","link":"0","blank":"1","icon":"","created":1557995133,"updated":-62169984000,"maps":["1"],"edit":false},{"id":"3864","lat":"46.325713","lng":"-0.463903","name":"L'epicerie Fermi\u00e8re ","address":"28 Rue Brisson,79000,niort ","popup":"","link":"0","blank":"1","icon":"","created":1557995133,"updated":-62169984000,"maps":["1"],"edit":false},{"id":"3865","lat":"48.555817","lng":"2.636207","name":"Biocoop Le Baquet Vert ","address":"Zone Commerciale De Chauray ,79180,chauray ","popup":"","link":"0","blank":"1","icon":"","created":1557995133,"updated":-62169984000,"maps":["1"],"edit":false},{"id":"3866","lat":"46.650134","lng":"-0.231288","name":"Biocoop Au Quatre Saisons Bio ","address":"Zone Artisanale Des Loges ,79200,parthenay ","popup":"","link":"0","blank":"1","icon":"","created":1557995133,"updated":-62169984000,"maps":["1"],"edit":false},{"id":"3867","lat":"46.437842","lng":"-0.448870","name":"La Boulange De Rose-elise ","address":"4 Rte Moulin Br\u00fbl\u00e9,79220,sainte Ouenne ","popup":"","link":"0","blank":"1","icon":"","created":1557995133,"updated":-62169984000,"maps":["1"],"edit":false},{"id":"3868","lat":"46.221568","lng":"-0.143469","name":"Le Caf\u00e9 Du Boulevard ","address":"2 Place Ren\u00e9 Groussard,79500,melle ","popup":"","link":"0","blank":"1","icon":"","created":1557995133,"updated":-62169984000,"maps":["1"],"edit":false},{"id":"3869","lat":"50.008587","lng":"2.007908","name":"Esat De Flixecourt ","address":"23 Rue Du Haut De Cond\u00e9,80890,cond\u00e9folie ","popup":"","link":"0","blank":"1","icon":"","created":1557995133,"updated":-62169984000,"maps":["1"],"edit":false},{"id":"3870","lat":"43.929580","lng":"2.147759","name":"Librairie Guillot ","address":"21 Lices Georges Pompidou,81000,albi ","popup":"","link":"0","blank":"1","icon":"","created":1557995133,"updated":-62169984000,"maps":["1"],"edit":false},{"id":"3871","lat":"43.918974","lng":"2.164876","name":"Magasin Bio-malin ","address":"273, Rue Du Roc,81000,albi ","popup":"","link":"0","blank":"1","icon":"","created":1557995133,"updated":-62169984000,"maps":["1"],"edit":false},{"id":"3872","lat":"43.928890","lng":"2.153051","name":"Magasin Copidem ","address":"33, Boulevard Soult,81000,albi ","popup":"","link":"0","blank":"1","icon":"","created":1557995133,"updated":-62169984000,"maps":["1"],"edit":false},{"id":"3873","lat":"43.913082","lng":"2.143036","name":"Biocoop Pa\u00efs Albiges ","address":"9 Rue Du Puech Petit,81000,albi ","popup":"","link":"0","blank":"1","icon":"","created":1557995133,"updated":-62169984000,"maps":["1"],"edit":false},{"id":"3874","lat":"43.776474","lng":"2.188889","name":"Alter & Bio ","address":"5 Rue De L Hotel De Ville,81120,realmont ","popup":"","link":"0","blank":"1","icon":"","created":1557995133,"updated":-62169984000,"maps":["1"],"edit":false},{"id":"3875","lat":"43.942616","lng":"2.227583","name":"Table De Presse ","address":"March\u00e9 Noctambio - Tous Les Lundis De 16h \u00e0 19h,81160,st Ju\u00e9ry ","popup":"","link":"0","blank":"1","icon":"","created":1557995133,"updated":-62169984000,"maps":["1"],"edit":false},{"id":"3876","lat":"43.651290","lng":"1.975474","name":"Atelier Citoyen ","address":"8 Av De Servies,81220,damiatte ","popup":"","link":"0","blank":"1","icon":"","created":1557995133,"updated":-62169984000,"maps":["1"],"edit":false},{"id":"3877","lat":"43.134754","lng":"6.024928","name":"Biocoop Arelan Dao Sarl ","address":"505 Avenue Robespierre,83130,la Garde ","popup":"","link":"0","blank":"1","icon":"","created":1557995133,"updated":-62169984000,"maps":["1"],"edit":false},{"id":"3878","lat":"43.534161","lng":"6.477661","name":"Biocoop Soleil Bio ","address":"C\/o Olivier Bonnot ,83300,draguignan ","popup":"","link":"0","blank":"1","icon":"","created":1557995133,"updated":-62169984000,"maps":["1"],"edit":false},{"id":"3879","lat":"43.563774","lng":"6.232291","name":"Biocoop Cobionat ","address":"C\/o Portero Sylvie ,83690,salernes ","popup":"","link":"0","blank":"1","icon":"","created":1557995133,"updated":-62169984000,"maps":["1"],"edit":false},{"id":"3880","lat":"43.941169","lng":"4.826153","name":"Armony De Vivre Magasin Bio ","address":"33 Route De Montfavet,84000,avignon ","popup":"","link":"0","blank":"1","icon":"","created":1557995133,"updated":-62169984000,"maps":["1"],"edit":false},{"id":"3881","lat":"43.947855","lng":"4.807592","name":"Les Films Du Potager ","address":"Utopiz ,84000,avignon ","popup":"","link":"0","blank":"1","icon":"","created":1557995133,"updated":-62169984000,"maps":["1"],"edit":false},{"id":"3882","lat":"44.241140","lng":"5.073350","name":"Pain Et Liberte Association ","address":"12 Avenue Jules Ferry,84110,vaison La Romaine ","popup":"","link":"0","blank":"1","icon":"","created":1557995133,"updated":-62169984000,"maps":["1"],"edit":false},{"id":"3883","lat":"43.772626","lng":"5.438563","name":"Fournil Des Touselles ","address":"Place De La Fontaine ,84160,cucuron ","popup":"","link":"0","blank":"1","icon":"","created":1557995133,"updated":-62169984000,"maps":["1"],"edit":false},{"id":"3884","lat":"43.843520","lng":"5.078375","name":"Biocoop Cultures Bio ","address":"1713 Route De Robion,84300,cavaillon ","popup":"","link":"0","blank":"1","icon":"","created":1557995133,"updated":-62169984000,"maps":["1"],"edit":false},{"id":"3885","lat":"43.887529","lng":"5.372112","name":"Luberon Bio Distribution ","address":"Zone Industrielle Des Bourguignons ,84400,apt ","popup":"","link":"0","blank":"1","icon":"","created":1557995133,"updated":-62169984000,"maps":["1"],"edit":false},{"id":"3886","lat":"46.854578","lng":"-1.868091","name":"Biocoop Mara\u00eechine ","address":"1 Rue De La Cailletiere,85300,challans ","popup":"","link":"0","blank":"1","icon":"","created":1557995133,"updated":-62169984000,"maps":["1"],"edit":false},{"id":"3887","lat":"46.582516","lng":"0.340800","name":"Librairie La Bruy\u00e8re Vagabonde ","address":"31 Rue Edouard Grimaux,86000,poitiers ","popup":"","link":"0","blank":"1","icon":"","created":1557995133,"updated":-62169984000,"maps":["1"],"edit":false},{"id":"3888","lat":"46.548392","lng":"0.296912","name":"Biocoop Le Pois Tout Vert ","address":"14 Route De La Saulaie,86000,poitiers ","popup":"","link":"0","blank":"1","icon":"","created":1557995133,"updated":-62169984000,"maps":["1"],"edit":false},{"id":"3889","lat":"46.582430","lng":"0.343738","name":"Biblio Cafe ","address":"71 Bis Rue De La Cathedrale,86000,poitiers ","popup":"","link":"0","blank":"1","icon":"","created":1557995133,"updated":-62169984000,"maps":["1"],"edit":false},{"id":"3890","lat":"46.835622","lng":"0.542081","name":"Biocoop Le Pois Tout Vert ","address":"Zone Commerciale La D\u00e9sir\u00e9e ,86100,chatellerault ","popup":"","link":"0","blank":"1","icon":"","created":1557995133,"updated":-62169984000,"maps":["1"],"edit":false},{"id":"3891","lat":"46.797469","lng":"0.375313","name":"L'improbable Librairie ","address":"Les Tessonnieres ,86140,st Genest D'ambiere ","popup":"","link":"0","blank":"1","icon":"","created":1557995133,"updated":-62169984000,"maps":["1"],"edit":false},{"id":"3892","lat":"46.569690","lng":"0.644528","name":"Stand Veganarchy ","address":"Place Du March\u00e9 ,86300,chauvigny ","popup":"","link":"0","blank":"1","icon":"","created":1557995133,"updated":-62169984000,"maps":["1"],"edit":false},{"id":"3893","lat":"48.275364","lng":"6.964318","name":"La Vie Claire Grand March\u00e9 Bio ","address":"531 Rue Ernest Charlier,88100,sainte-marguerite ","popup":"","link":"0","blank":"1","icon":"","created":1557995133,"updated":-62169984000,"maps":["1"],"edit":false},{"id":"3894","lat":"47.789464","lng":"3.582862","name":"Germinal Auxerre ","address":"22 Rue De Preuilly,89000,auxerre ","popup":"","link":"0","blank":"1","icon":"","created":1557995133,"updated":-62169984000,"maps":["1"],"edit":false},{"id":"3895","lat":"48.200864","lng":"3.290946","name":"Germinal Sens ","address":"Rives Nord ,89100,sens ","popup":"","link":"0","blank":"1","icon":"","created":1557995133,"updated":-62169984000,"maps":["1"],"edit":false},{"id":"3896","lat":"48.154439","lng":"3.231669","name":"Le Bar'ouf Caf\u00e9 ","address":"5 Rue De La Vossiere,89100,collemiers ","popup":"","link":"0","blank":"1","icon":"","created":1557995133,"updated":-62169984000,"maps":["1"],"edit":false},{"id":"3897","lat":"47.853561","lng":"3.973785","name":"Germinal Tonnerre ","address":"15 Bis Boulevard Georges Lemoine,89700,tonnerre ","popup":"","link":"0","blank":"1","icon":"","created":1557995133,"updated":-62169984000,"maps":["1"],"edit":false},{"id":"3898","lat":"47.642940","lng":"6.845330","name":"Biocoop Le Grenier Vert ","address":"Raigneau Celine ,90000,belfort ","popup":"","link":"0","blank":"1","icon":"","created":1557995133,"updated":-62169984000,"maps":["1"],"edit":false},{"id":"3899","lat":"48.434415","lng":"2.164953","name":"Camomille & Potentille ","address":"55 Rue De La R\u00e9publique,91150,\u00e9tampes ","popup":"","link":"0","blank":"1","icon":"","created":1557995133,"updated":-62169984000,"maps":["1"],"edit":false},{"id":"3900","lat":"48.426538","lng":"2.139212","name":"La Source ","address":"Carrefour Du Moulin Sablon ,91150,etampes ","popup":"","link":"0","blank":"1","icon":"","created":1557995133,"updated":-62169984000,"maps":["1"],"edit":false},{"id":"3901","lat":"48.731799","lng":"2.103932","name":"Amap-les Jardins De C\u00e9r\u00e8s ","address":"Ferme Vandame ,91190,villiers-le-b\u00e2cle ","popup":"","link":"0","blank":"1","icon":"","created":1557995133,"updated":-62169984000,"maps":["1"],"edit":false},{"id":"3902","lat":"48.731799","lng":"2.103932","name":"Distribution Amap-les Jardins De C\u00e9r\u00e8s ","address":"Ferme Vandame ,91190,villiers Le B\u00e2cle ","popup":"","link":"0","blank":"1","icon":"","created":1557995133,"updated":-62169984000,"maps":["1"],"edit":false},{"id":"3903","lat":"48.718237","lng":"2.444776","name":"Biocoop La Foret Le Chene ","address":"38 Avenue Jean Jaur\u00e8s,91230,montgeron ","popup":"","link":"0","blank":"1","icon":"","created":1557995133,"updated":-62169984000,"maps":["1"],"edit":false},{"id":"3904","lat":"48.734239","lng":"2.326355","name":"Le Stand Bio ","address":"March\u00e9 Du Samedi Matin ,91320,wissous ","popup":"","link":"0","blank":"1","icon":"","created":1557995133,"updated":-62169984000,"maps":["1"],"edit":false},{"id":"3905","lat":"48.513819","lng":"2.122001","name":"Caf\u00e9 Associatif Le P'tit Vilco ","address":"4, Grande Rue,91580,villeconin ","popup":"","link":"0","blank":"1","icon":"","created":1557995133,"updated":-62169984000,"maps":["1"],"edit":false},{"id":"3906","lat":"48.853937","lng":"2.420618","name":"Casa Poblano ","address":"15 Rue Lavoisier,93100,montreuil ","popup":"","link":"0","blank":"1","icon":"","created":1557995133,"updated":-62169984000,"maps":["1"],"edit":false},{"id":"3907","lat":"48.852681","lng":"2.423711","name":"Nouveaux Robinson ","address":"56 Bis Rue Robespierre,93100,montreuil ","popup":"","link":"0","blank":"1","icon":"","created":1557995133,"updated":-62169984000,"maps":["1"],"edit":false},{"id":"3908","lat":"48.943258","lng":"2.473541","name":"Ressourcerie 2 Mains","address":"19 Avenue Albert Einstein Lot 38,93150,le Blanc Mesnil ","popup":"","link":"0","blank":"1","icon":"","created":1557995133,"updated":-62169984000,"maps":["1"],"edit":false},{"id":"3909","lat":"48.943654","lng":"2.347136","name":"Coop\u00e9rative Andines ","address":"5 Rue De La Poterie,93200,saint-denis ","popup":"","link":"0","blank":"1","icon":"","created":1557995133,"updated":-62169984000,"maps":["1"],"edit":false},{"id":"3910","lat":"48.809151","lng":"2.386539","name":"Nouveaux Robinson ","address":"32, Rue Marat,94200,ivry-sur-seine ","popup":"","link":"0","blank":"1","icon":"","created":1557995133,"updated":-62169984000,"maps":["1"],"edit":false},{"id":"3911","lat":"48.814629","lng":"2.401249","name":"Cyclofficine ","address":"6, Bd De Brandebourg,94200,ivry Sur Seine ","popup":"","link":"0","blank":"1","icon":"","created":1557995133,"updated":-62169984000,"maps":["1"],"edit":false},{"id":"3912","lat":"48.776069","lng":"2.389094","name":"Plan\u00e8te Lilas ","address":"78, Rue Lemerle Vetter,94400,vitry Sur Seine ","popup":"","link":"0","blank":"1","icon":"","created":1557995133,"updated":-62169984000,"maps":["1"],"edit":false},{"id":"3913","lat":"49.029193","lng":"2.343982","name":"Nos Meilleures Courses ","address":"48 Avenue De L'europe,95330,domont ","popup":"","link":"0","blank":"1","icon":"","created":1557995133,"updated":-62169984000,"maps":["1"],"edit":false},{"id":"3914","lat":"49.003734","lng":"2.395569","name":"Association La Case ","address":"1 Rue Jean Bullant,95400,villiers Le Bel ","popup":"","link":"0","blank":"1","icon":"","created":1557995133,"updated":-62169984000,"maps":["1"],"edit":false},{"id":"3915","lat":"-21.356466","lng":"55.550946","name":"Arec - Association Pour Le Respect De L'environnement Et Du Cadre De Vie ","address":"March\u00e9 Solidari'terre, 5 Rue Du Verger H\u00e9m\u00e9ry,97429,petite Ile ","popup":"","link":"0","blank":"1","icon":"","created":1557995133,"updated":-62169984000,"maps":["1"],"edit":false},{"id":"3916","lat":"46.906700","lng":"6.346200","name":"So Bio","address":"83 Rue de Salins, Bourgogne-Franche-Comt\u00e9, Pontarlier, France","popup":"","link":"","blank":"1","icon":"","created":1596030484,"updated":-62169984000,"maps":["1"],"edit":false},{"id":"3917","lat":"45.855100","lng":"4.688410","name":"So Bio","address":"108 l Rue de l'Entreprise, Auvergne-Rh\u00f4ne-Alpes, Lozanne, France","popup":"","link":"","blank":"1","icon":"","created":1596030541,"updated":-62169984000,"maps":["1"],"edit":false},{"id":"3918","lat":"47.647500","lng":"-2.707000","name":"BIO GOLFE THEIX","address":"4 Rue Jacques Cartier, Bretagne, Theix-Noyalo, France","popup":"","link":"","blank":"1","icon":"","created":1596031647,"updated":-62169984000,"maps":["1"],"edit":false},{"id":"3919","lat":"47.663200","lng":"-2.801390","name":"BIO GOLFE PLOEREN LUSCANEN","address":"Avenue Louis de Cadoudal, Bretagne, Ploeren, France","popup":"","link":"","blank":"1","icon":"","created":1596031701,"updated":-62169984000,"maps":["1"],"edit":false},{"id":"3920","lat":"47.679500","lng":"-2.735120","name":"BIO GOLFE ST AVE","address":"5 Rue Marcel Dassault, Bretagne, Saint-Av\u00e9, France","popup":"","link":"","blank":"1","icon":"","created":1596031748,"updated":-62169984000,"maps":["1"],"edit":false},{"id":"3921","lat":"48.515000","lng":"7.646270","name":"SATORIZ STRASBOURG SUD","address":"ZI Hotellerie de l Ill PONT DU PEAGE Geispolsheim, Grand-Est, France","popup":"","link":"","blank":"1","icon":"","created":1599490702,"updated":1599491632,"maps":["1"],"edit":false},{"id":"3923","lat":"46.355300","lng":"6.427350","name":"SATORIZ THONON (ANTHY) ","address":"Anthy-sur-L\u00e9man, Auvergne-Rh\u00f4ne-Alpes, France","popup":"","link":"","blank":"1","icon":"","created":1599491818,"updated":1599492463,"maps":["1"],"edit":false},{"id":"3924","lat":"45.944700","lng":"6.629910","name":"SATORIZ SALLANCHES","address":"1894 Avenue de Geneve, Auvergne-Rh\u00f4ne-Alpes, Sallanches, France","popup":"","link":"","blank":"1","icon":"","created":1599492498,"updated":1599492524,"maps":["1"],"edit":false},{"id":"3925","lat":"45.443300","lng":"4.424800","name":"SATORIZ SAINT ETIENNE","address":"5 Rue Marc Charras, Auvergne-Rh\u00f4ne-Alpes, Saint-\u00c9tienne, France","popup":"","link":"","blank":"1","icon":"","created":1599492620,"updated":1599492786,"maps":["1"],"edit":false},{"id":"3926","lat":"45.658800","lng":"6.374560","name":"SATORIZ ALBERTVILLE","address":"1115 Chemin de la Cassine, Auvergne-Rh\u00f4ne-Alpes, Albertville, France","popup":"","link":"","blank":"1","icon":"","created":1599492821,"updated":1599492830,"maps":["1"],"edit":false},{"id":"3927","lat":"46.333500","lng":"4.845240","name":"SATORIZ MACON","address":"22 Rue du 19 Mars 1962, Bourgogne-Franche-Comt\u00e9, Sanc\u00e9, France","popup":"","link":"","blank":"1","icon":"","created":1599493120,"updated":-62169984000,"maps":["1"],"edit":false},{"id":"3928","lat":"43.824800","lng":"4.326780","name":"SATORIZ NIMES","address":"115 Boulevard des Fran\u00e7ais Libres, Occitanie, N\u00eemes, France","popup":"","link":"","blank":"1","icon":"","created":1599493269,"updated":1599493275,"maps":["1"],"edit":false},{"id":"3929","lat":"45.786900","lng":"4.925100","name":"SATORIZ LES 7 CHEMINS","address":"10 RUE FRERES LUMIERE Vaulx-en-Velin, Auvergne-Rh\u00f4ne-Alpes, France","popup":"","link":"","blank":"1","icon":"","created":1599493366,"updated":1599493408,"maps":["1"],"edit":false},{"id":"3930","lat":"45.801900","lng":"4.856590","name":"SATORIZ TETE D OR","address":"100 Avenue G\u00e9n\u00e9ral Leclerc, Auvergne-Rh\u00f4ne-Alpes, Caluire-et-Cuire, France","popup":"","link":"","blank":"1","icon":"","created":1599493521,"updated":-62169984000,"maps":["1"],"edit":false},{"id":"3931","lat":"45.613500","lng":"5.230520","name":"SATORIZ L ISLE D ABEAU","address":"6 bis Rue des Sayes, Auvergne-Rh\u00f4ne-Alpes, L'Isle-d'Abeau, France","popup":"","link":"","blank":"1","icon":"","created":1599493603,"updated":-62169984000,"maps":["1"],"edit":false},{"id":"3932","lat":"45.278700","lng":"5.889990","name":"SATORIZ CROLLES","address":"441 Rue Charles de Gaulle, Auvergne-Rh\u00f4ne-Alpes, Crolles, France","popup":"","link":"","blank":"1","icon":"","created":1599493646,"updated":-62169984000,"maps":["1"],"edit":false},{"id":"3933","lat":"43.589900","lng":"7.056160","name":"SATORIZ VALLAURIS","address":"Chemin de Saint-Bernard, Provence-Alpes-C\u00f4te d'Azur, Vallauris, France","popup":"","link":"","blank":"1","icon":"","created":1599493715,"updated":-62169984000,"maps":["1"],"edit":false},{"id":"3934","lat":"45.804600","lng":"4.780410","name":"SATORIZ LYON NORD","address":"11 d Rue des Rosi\u00e9ristes, Auvergne-Rh\u00f4ne-Alpes, Champagne au Mont d'Or, France","popup":"","link":"","blank":"1","icon":"","created":1599493778,"updated":1599493916,"maps":["1"],"edit":false},{"id":"3935","lat":"45.383800","lng":"5.578480","name":"SATORIZ VOIRON","address":"Zi les blanchisseries, Auvergne-Rh\u00f4ne-Alpes, Voiron, France","popup":"","link":"","blank":"1","icon":"","created":1599493968,"updated":-62169984000,"maps":["1"],"edit":false},{"id":"3936","lat":"47.806000","lng":"7.312400","name":"SATORIZ MULHOUSE","address":"13 Route de Soultz, Grand-Est, Wittenheim, France","popup":"","link":"","blank":"1","icon":"","created":1599494017,"updated":-62169984000,"maps":["1"],"edit":false},{"id":"3937","lat":"43.958700","lng":"4.754120","name":"SATORIZ AVIGNON","address":"Rue de la Tramontane, Occitanie, Les Angles, France","popup":"","link":"","blank":"1","icon":"","created":1599494267,"updated":-62169984000,"maps":["1"],"edit":false},{"id":"3938","lat":"45.751000","lng":"3.132630","name":"SATORIZ CLERMONT","address":"15 Avenue du Roussillon, Auvergne-Rh\u00f4ne-Alpes, Aubi\u00e8re, France","popup":"","link":"","blank":"1","icon":"","created":1599494315,"updated":-62169984000,"maps":["1"],"edit":false},{"id":"3939","lat":"46.179500","lng":"6.215330","name":"SATORIZ ANNEMASSE","address":"2 Rue Ren\u00e9 Cassin, Auvergne-Rh\u00f4ne-Alpes, Gaillard, France","popup":"","link":"","blank":"1","icon":"","created":1599494388,"updated":-62169984000,"maps":["1"],"edit":false}]